     2.11           OBSERVATION DATA    M (MIXED)           RINEX VERSION / TYPE
teqc  2013Mar15                         20150319 01:10:02UTCPGM / RUN BY / DATE
MSXP|IAx86-PII|bcc32 5.0|MSWin95->XP|486/DX+                COMMENT
BIT 2 OF LLI FLAGS DATA COLLECTED UNDER A/S CONDITION       COMMENT
-Unknown-                                                   MARKER NAME
MTKA                                                        MARKER NUMBER
-Unknown-           -Unknown-                               OBSERVER / AGENCY
-Unknown-           ASHTECH             -Unknown-           REC # / TYPE / VERS
-Unknown-           -Unknown-                               ANT # / TYPE
 -3947778.7069  3364411.7524  3699448.9683                  APPROX POSITION XYZ
        0.0000        0.0000        0.0000                  ANTENNA: DELTA H/E/N
     1     1                                                WAVELENGTH FACT L1/2
     7    L1    L2    C1    P1    P2    S1    S2            # / TYPES OF OBSERV
 SNR is mapped to RINEX snr flag value [1-9]                COMMENT
  L1: 1 -> 1;  90 -> 5; 210 -> 9                            COMMENT
  L2: 1 -> 1; 150 -> 5; 250 -> 9                            COMMENT
pseudorange smoothing corrections not applied               COMMENT
  2015     3    18     0     1    0.0000000     GPS         TIME OF FIRST OBS
    16                                                      LEAP SECONDS
                                                            END OF HEADER
 15  3 18  0  1  0.0000000  0 14G30G10G24G13G05G29G15G20G28R21R05R07
                                R23R08
 -10929371.166 2  -8516390.371 2  23541733.940    23541733.940    23541740.951
        27.000          27.000
   -898558.615 2   -700190.373 1  25333369.570    25333369.570    25333376.438
        15.000          15.000
    170080.105 2    132528.973 2  24002798.418    24002798.418    24002805.658
        21.000          21.000
 -12813328.178 3  -9984409.014 2  20417280.843    20417280.843    20417282.502
        40.000          40.000
 -20811493.306 3 -16216747.872 2  20845109.130    20845109.130    20845111.563
        41.000          41.000
   1507967.441 2   1175642.657 2  24428398.898    24428398.898    24428402.790
        22.000          22.000
 -12523983.893 3  -9758945.124 2  21110362.528    21110362.528    21110365.418
        38.000          39.000
   -704147.453 2   -548695.495 2  24432272.039    24432272.039    24432279.823
        21.000          21.000
  -1400702.129 1  -1091451.445 1  24860418.761    24860418.761    24860419.419
        12.000          12.000
  -5613885.318 3  -4366365.111 1  23188486.935    23188486.935    23188494.268
        40.000          19.000
   6302389.328 2   4901847.483 1  23979534.964    23979534.964    23979540.005
        31.000          18.000
 -17684882.939 3 -13754903.420 1  20773449.152    20773449.152    20773453.850
        47.000          18.000
   -915726.790 3                  23214906.190    23214906.190
        39.000
  -1263595.297 3   -982795.021 1  24194362.601    24194362.601    24194367.127
        36.000          18.000
 15  3 18  0  1 30.0000000  0 14G30G10G24G13G05G29G15G20G28R21R05R07
                                R23R08
 -10846741.413 2  -8452003.583 2  23557458.012    23557458.012    23557463.993
        26.000          26.000
   -808826.112 2   -630269.186 1  25350443.696    25350443.696    25350451.337
        16.000          16.000
     56747.677 2     44218.086 2  23981231.401    23981231.401    23981238.069
        20.000          20.000
 -12791400.870 3  -9967322.810 2  20421453.323    20421453.323    20421455.212
        40.000          40.000
 -20783576.859 3 -16194994.815 2  20850421.405    20850421.405    20850423.923
        41.000          41.000
   1578236.302 2   1230397.593 2  24441770.184    24441770.184    24441773.990
        22.000          22.000
 -12564203.032 3  -9790284.694 2  21102709.273    21102709.273    21102711.820
        39.000          39.000
   -615004.877 2   -479233.887 2  24449235.727    24449235.727    24449240.735
        20.000          20.000
  -1443098.941 2  -1124487.884 1  24852349.505    24852349.505    24852354.657
        13.000          14.000
  -5495446.069 3  -4274245.825 2  23210621.696    23210621.696    23210626.967
        41.000          39.000
   6379321.431 2   4961683.480 1  23993929.991    23993929.991    23993933.314
        31.000          18.000
 -17732950.663 3 -13792288.912 1  20764472.254    20764472.254    20764476.436
        47.000          19.000
   -964797.287 3                  23205733.836    23205733.836
        38.000
  -1344491.677 3  -1045714.406 1  24179254.304    24179254.304    24179259.918
        36.000          17.000
 15  3 18  0  2  0.0000000  0 14G30G10G24G13G05G29G15G20G28R21R05R07
                                R23R08
 -10763764.545 2  -8387346.304 2  23573248.530    23573248.530    23573255.227
        26.000          26.000
   -719018.923 2   -560289.818 1  25367531.455    25367531.455    25367542.788
        16.000          16.000
    -56486.219 2    -44016.009 2  23959683.775    23959683.775    23959692.017
        22.000          21.000
 -12769153.167 3  -9949986.950 2  20425686.771    20425686.771    20425689.003
        40.000          40.000
 -20755343.303 3 -16172994.661 2  20855794.241    20855794.241    20855796.416
        41.000          41.000
   1648639.240 2   1285256.939 2  24455168.288    24455168.288    24455173.669
        20.000          20.000
 -12604120.524 3  -9821389.227 2  21095113.260    21095113.260    21095115.779
        39.000          39.000
   -525731.115 2   -409670.094 2  24466224.614    24466224.614    24466230.852
        20.000          20.000
  -1485218.066 1  -1157307.927 1  24844332.401    24844332.401    24844339.355
        12.000          12.000
  -5376950.967 3  -4182083.037 2  23232766.058    23232766.058    23232770.183
        41.000          39.000
   6456352.701 2   5021596.042 2  24008336.642    24008336.642    24008348.043
        31.000          21.000
 -17780902.013 3 -13829584.404 1  20755513.035    20755513.035    20755516.129
        47.000          17.000
  -1013178.427 3                  23196687.588    23196687.588
        38.000
  -1425454.378 3  -1108685.876 1  24164135.609    24164135.609    24164145.119
        35.000          18.000
 15  3 18  0  2 30.0000000  0 14G30G10G24G13G05G29G15G20G28R21R05R07
                                R23R08
 -10680435.889 2  -8322414.892 2  23589104.438    23589104.438    23589110.763
        27.000          27.000
   -629130.035 2   -490246.809 1  25384638.636    25384638.636    25384644.703
        16.000          16.000
   -169611.555 2   -132165.546 2  23938156.867    23938156.867    23938167.341
        21.000          21.000
 -12746579.168 3  -9932396.819 2  20429982.541    20429982.541    20429984.630
        40.000          40.000
 -20726785.410 3 -16150741.771 2  20861228.610    20861228.610    20861231.271
        41.000          41.000
   1719180.737 2   1340224.294 2  24468592.642    24468592.642    24468596.591
        20.000          20.000
 -12643729.552 3  -9852253.396 2  21087575.850    21087575.850    21087578.540
        39.000          39.000
   -436319.070 2   -339998.499 1  24483238.810    24483238.810    24483241.357
        19.000          19.000
  -1527050.238 1  -1189904.418 1  24836371.993    24836371.993    24836376.486
        12.000          12.000
  -5258396.929 3  -4089874.463 2  23254919.076    23254919.076    23254925.836
        39.000          40.000
   6533490.880 2   5081592.319 1  24022766.483    24022766.483    24022775.994
        30.000          18.000
 -17828729.015 3 -13866783.659 1  20746578.963    20746578.963    20746583.489
        47.000          17.000
  -1060861.532 3                  23187774.800    23187774.800
        38.000
  -1506476.165 3  -1171702.789 1  24149007.433    24149007.433    24149010.756
        36.000          19.000
 15  3 18  0  3  0.0000000  0 14G30G10G24G13G05G29G15G20G28R21R05R07
                                R23R08
 -10596764.982 2  -8257216.804 2  23605026.402    23605026.402    23605033.213
        26.000          26.000
   -539167.198 2   -420146.164 1  25401754.912    25401754.912    25401766.760
        14.000          14.000
   -282633.238 2   -220234.304 2  23916649.408    23916649.408    23916658.023
        22.000          21.000
 -12723687.349 3  -9914559.039 2  20434338.764    20434338.764    20434340.968
        40.000          40.000
 -20697909.574 3 -16128241.142 2  20866723.513    20866723.513    20866726.175
        41.000          41.000
   1789850.586 2   1395291.652 1  24482038.808    24482038.808    24482043.215
        19.000          19.000
 -12683037.365 3  -9882882.855 2  21080096.005    21080096.005    21080098.180
        39.000          39.000
   -346777.015 2   -270225.645 2  24500278.302    24500278.302    24500283.540
        19.000          20.000
  -1568600.136 1  -1222280.940 1  24828468.170    24828468.170    24828471.347
        12.000          12.000
  -5139795.611 3  -3997629.109 2  23277083.381    23277083.381    23277088.881
        40.000          39.000
   6610729.142 2   5141666.445 1  24037215.385    24037215.385    24037223.750
        31.000          18.000
 -17876437.618 3 -13903889.843 1  20737665.821    20737665.821    20737670.118
        47.000          18.000
  -1107851.375 3                  23178991.108    23178991.108
        37.000
  -1587564.366 3  -1234770.887 1  24133864.391    24133864.391    24133868.058
        37.000          18.000
 15  3 18  0  3 30.0000000  0 14G30G10G24G13G05G29G15G20G28R21R05R07
                                R23R08
 -10512750.808 2  -8191751.263 2  23621014.439    23621014.439    23621019.963
        27.000          26.000
   -449127.504 2   -349985.648 1  25418893.472    25418893.472    25418903.059
        15.000          15.000
   -395544.774 2   -308217.254 2  23895163.838    23895163.838    23895168.474
        21.000          21.000
 -12700475.270 3  -9896471.716 2  20438755.935    20438755.935    20438758.082
        40.000          40.000
 -20668711.900 3 -16105489.728 2  20872279.160    20872279.160    20872281.908
        41.000          41.000
   1860649.287 2   1450459.462 1  24495511.243    24495511.243    24495515.335
        17.000          17.000
 -12722040.657 3  -9913275.015 2  21072673.704    21072673.704    21072676.165
        39.000          39.000
   -257102.090 2   -200349.280 2  24517342.449    24517342.449    24517347.056
        20.000          20.000
  -1609861.640 1  -1254432.668 1  24820613.790    24820613.790    24820623.348
        12.000          12.000
  -5021147.633 3  -3905347.453 2  23299255.877    23299255.877    23299260.575
        39.000          38.000
   6688071.231 2   5201821.262 2  24051686.412    24051686.412    24051693.172
        31.000          36.000
 -17924023.449 3 -13940901.031 1  20728777.110    20728777.110    20728781.980
        47.000          19.000
  -1154142.859 3                  23170335.177    23170335.177
        38.000
  -1668715.437 3  -1297888.821 1  24118710.322    24118710.322    24118715.249
        36.000          18.000
 15  3 18  0  4  0.0000000  0 14G30G10G24G13G05G29G15G20G28R21R05R07
                                R23R08
 -10428396.219 2  -8126020.421 2  23637067.333    23637067.333    23637072.084
        25.000          26.000
   -359011.429 2   -279765.645 1  25436040.226    25436040.226    25436048.297
        14.000          14.000
   -508344.305 2   -396112.913 2  23873697.465    23873697.465    23873705.421
        21.000          21.000
 -12676944.858 3  -9878136.330 2  20443233.385    20443233.385    20443235.818
        40.000          40.000
 -20639192.258 3 -16082487.432 2  20877896.899    20877896.899    20877899.532
        41.000          41.000
   1931573.739 2   1505725.147 2  24509007.843    24509007.843    24509013.138
        20.000          20.000
 -12760739.842 3  -9943430.207 2  21065309.422    21065309.422    21065311.854
        39.000          40.000
   -167294.833 2   -130369.780 1  24534430.930    24534430.930    24534435.280
        19.000          19.000
  -1650832.697 2  -1286358.145 1  24812819.544    24812819.544    24812825.926
        13.000          13.000
  -4902457.623 3  -3813033.107 2  23321436.353    23321436.353    23321442.254
        39.000          40.000
   6765517.485 2   5262057.138 2  24066174.846    24066174.846    24066179.486
        30.000          37.000
 -17971486.113 3 -13977816.428 2  20719910.946    20719910.946    20719915.415
        47.000          47.000
  -1199734.462 3   -933126.691 1  23161812.527    23161812.527    23161820.491
        39.000          17.000
  -1749929.704 3  -1361055.471 2  24103544.519    24103544.519    24103544.863
        37.000          35.000
 15  3 18  0  4 30.0000000  0 14G30G10G24G13G05G29G15G20G28R21R05R07
                                R23R08
 -10343702.859 2  -8060025.608 2  23653182.137    23653182.137    23653190.065
        25.000          25.000
   -268818.759 2   -209485.928 1  25453204.177    25453204.177    25453213.163
        15.000          15.000
   -621028.094 2   -483918.364 2  23852253.660    23852253.660    23852262.074
        22.000          22.000
 -12653096.482 3  -9859553.188 2  20447771.727    20447771.727    20447774.102
        40.000          40.000
 -20609349.333 3 -16059233.222 2  20883575.654    20883575.654    20883578.402
        41.000          41.000
   2002621.596 2   1561087.062 1  24522528.069    24522528.069    24522531.189
        18.000          19.000
 -12799134.703 3  -9973348.264 2  21058003.255    21058003.255    21058005.917
        39.000          39.000
    -77355.546 2    -60287.391 2  24551548.154    24551548.154    24551551.960
        19.000          20.000
  -1691510.068 1  -1318054.746 1  24805076.036    24805076.036    24805075.349
        11.000          11.000
  -4783729.041 3  -3720688.768 2  23343624.245    23343624.245    23343630.318
        39.000          40.000
   6843068.771 2   5322374.661 2  24080682.297    24080682.297    24080689.802
        30.000          37.000
 -18018823.841 3 -14014634.643 2  20711067.757    20711067.757    20711071.481
        48.000          47.000
  -1244623.837 3                  23153421.072    23153421.072
        37.000
  -1831206.367 3  -1424270.634 2  24088365.591    24088365.591    24088370.575
        39.000          36.000
 15  3 18  0  5  0.0000000  0 14G30G10G24G13G05G29G15G20G28R21R05R07
                                R23R08
 -10258679.961 2  -7993774.001 2  23669362.407    23669362.407    23669368.617
        26.000          26.000
   -178556.589 2   -139152.014 1  25470380.202    25470380.202    25470391.678
        14.000          14.000
   -733600.620 2   -571637.144 2  23830834.982    23830834.982    23830839.132
        23.000          23.000
 -12628938.244 3  -9840728.599 2  20452368.799    20452368.799    20452371.318
        41.000          40.000
 -20579189.177 3 -16035731.827 2  20889314.813    20889314.813    20889317.532
        41.000          41.000
   2073782.964 2   1616537.387 1  24536070.170    24536070.170    24536074.320
        17.000          17.000
 -12837231.960 3 -10003034.420 2  21050753.464    21050753.464    21050756.183
        39.000          39.000
     12708.531 2      9892.211 1  24568688.540    24568688.540    24568694.693
        19.000          19.000
  -1731897.880 1  -1349525.801 1  24797391.099    24797391.099    24797397.710
        12.000          12.000
  -4664973.043 3  -3628323.116 2  23365815.296    23365815.296    23365822.687
        38.000          39.000
   6920718.699 2   5382768.907 2  24095209.599    24095209.599    24095216.016
        31.000          37.000
 -18066042.383 3 -14051360.169 2  20702246.534    20702246.534    20702250.773
        47.000          47.000
  -1288816.031 3  -1002411.852 1  23145161.940    23145161.940    23145169.617
        38.000          16.000
  -1912552.223 3  -1487539.658 2  24073175.845    24073175.845    24073178.710
        38.000          36.000
 15  3 18  0  5 30.0000000  0 14G30G10G24G13G05G29G15G20G28R21R05R07
                                R23R08
 -10173323.938 2  -7927262.852 2  23685604.228    23685604.228    23685612.041
        26.000          26.000
    -88219.362 2    -68759.718 1  25487573.703    25487573.703    25487581.259
        17.000          17.000
   -846053.214 2   -659262.495 2  23809435.558    23809435.558    23809441.711
        22.000          22.000
 -12604465.482 3  -9821658.922 2  20457025.933    20457025.933    20457028.166
        40.000          40.000
 -20548705.386 3 -16011978.251 2  20895115.934    20895115.934    20895118.825
        41.000          41.000
   2145061.149 2   1672078.816 1  24549631.505    24549631.505    24549636.628
        17.000          17.000
 -12875025.964 3 -10032484.283 2  21043561.792    21043561.792    21043564.167
        39.000          39.000
    102903.072 2     80173.489 1  24585850.584    24585850.584    24585855.563
        19.000          19.000
  -1771988.112 2  -1380764.906 1  24789763.122    24789763.122    24789768.044
        13.000          13.000
  -4546187.690 3  -3535934.613 2  23388013.309    23388013.309    23388019.955
        39.000          39.000
   6998473.953 2   5443245.056 2  24109752.415    24109752.415    24109760.608
        30.000          37.000
 -18113134.427 3 -14087987.297 2  20693450.597    20693450.597    20693452.832
        47.000          46.000
  -1332303.067 3                  23137029.803    23137029.803
        37.000
  -1993961.302 3  -1550857.793 2  24057970.708    24057970.708    24057976.609
        35.000          35.000
 15  3 18  0  6  0.0000000  0 14G30G10G24G13G05G29G15G20G28R21R05R07
                                R23R08
 -10087636.512 2  -7860493.435 2  23701910.141    23701910.141    23701917.754
        25.000          25.000
      2193.531 2      1691.612 1  25504776.604    25504776.604    25504786.019
        16.000          17.000
   -958381.859 2   -746791.213 2  23788058.044    23788058.044    23788066.744
        23.000          23.000
 -12579678.489 3  -9802344.394 2  20461742.813    20461742.813    20461745.132
        40.000          40.000
 -20517896.731 3 -15987971.529 2  20900978.571    20900978.571    20900981.290
        41.000          41.000
   2216454.003 2   1727709.512 1  24563219.147    24563219.147    24563223.554
        18.000          17.000
 -12912515.903 3 -10061697.205 2  21036427.397    21036427.397    21036429.801
        39.000          39.000
    193228.358 2    150556.613 1  24603037.382    24603037.382    24603041.618
        17.000          18.000
  -1811777.549 1  -1411769.633 1  24782192.097    24782192.097    24782197.392
        12.000          12.000
  -4427376.376 3  -3443525.923 2  23410216.157    23410216.157    23410222.860
        39.000          38.000
   7076335.472 2   5503803.831 2  24124316.892    24124316.892    24124326.574
        30.000          37.000
 -18160098.209 3 -14124514.682 2  20684676.145    20684676.145    20684680.442
        47.000          46.000
  -1375082.428 3                  23129033.854    23129033.854
        38.000
  -2075432.534 3  -1614224.284 2  24042757.384    24042757.384    24042762.140
        37.000          35.000
 15  3 18  0  6 30.0000000  0 14G30G10G24G13G05G29G15G20G28R21R05R07
                                R23R08
 -10001624.098 2  -7793470.779 2  23718278.536    23718278.536    23718285.719
        26.000          26.000
     92677.506 2     72198.261 1  25521994.789    25521994.789    25522004.462
        15.000          16.000
  -1070588.809 2   -834225.164 2  23766705.444    23766705.444    23766713.629
        23.000          23.000
 -12554582.777 3  -9782789.294 2  20466518.626    20466518.626    20466520.687
        40.000          40.000
 -20486766.598 3 -15963714.302 2  20906902.637    20906902.637    20906905.070
        40.000          41.000
   2287954.514 2   1783424.093 1  24576825.826    24576825.826    24576831.492
        17.000          17.000
 -12949706.349 3 -10090676.760 2  21029350.547    21029350.547    21029352.579
        39.000          39.000
    283679.755 2    221038.020 1  24620250.372    24620250.372    24620253.835
        19.000          19.000
  -1851267.497 2  -1442540.993 1  24774676.621    24774676.621    24774678.109
        13.000          12.000
  -4308547.363 3  -3351103.486 2  23432421.795    23432421.795    23432429.415
        38.000          38.000
   7154299.972 2   5564442.743 2  24138901.348    24138901.348    24138911.031
        30.000          36.000
 -18206937.126 3 -14160944.937 2  20675927.065    20675927.065    20675929.815
        48.000          46.000
  -1417156.655 3                  23121168.472    23121168.472
        38.000
  -2156970.071 3  -1677642.373 2  24027532.364    24027532.364    24027535.687
        37.000          35.000
 15  3 18  0  7  0.0000000  0 14G30G10G24G13G05G29G15G20G28R21R05R07
                                R23R08
  -9915286.181 2  -7726194.488 2  23734707.750    23734707.750    23734714.390
        25.000          25.000
    183235.099 2    142762.355 1  25539230.731    25539230.731    25539239.574
        14.000          14.000
  -1182668.187 2   -921559.668 2  23745376.411    23745376.411    23745384.910
        22.000          22.000
 -12529176.447 3  -9762992.163 2  20471353.299    20471353.299    20471355.273
        40.000          40.000
 -20455311.527 3 -15939203.877 2  20912888.632    20912888.632    20912891.236
        41.000          41.000
   2359562.678 2   1839222.601 1  24590452.183    24590452.183    24590454.014
        16.000          16.000
 -12986594.188 3 -10119420.528 2  21022330.886    21022330.886    21022333.319
        39.000          39.000
    374259.582 2    291619.493 1  24637489.128    24637489.128    24637495.882
        17.000          17.000
  -1890453.174 2  -1473075.262 1  24767221.322    24767221.322    24767225.901
        15.000          15.000
  -4189701.826 3  -3258668.165 2  23454631.859    23454631.859    23454638.218
        39.000          39.000
   7232370.549 2   5625164.180 2  24153511.688    24153511.688    24153517.647
        29.000          35.000
 -18253646.903 3 -14197274.776 2  20667200.874    20667200.874    20667205.171
        47.000          47.000
  -1458520.818 3                  23113435.338    23113435.338
        38.000
  -2238570.720 3  -1741109.567 2  24012294.823    24012294.823    24012297.058
        38.000          35.000
 15  3 18  0  7 30.0000000  0 14G30G10G24G13G05G29G15G20G28R21R05R07
                                R23R08
  -9828632.969 2  -7658672.526 2  23751198.410    23751198.410    23751205.822
        24.000          24.000
    273857.914 2    213377.203 1  25556474.944    25556474.944    25556484.961
        15.000          14.000
  -1294624.804 2  -1008798.536 2  23724074.513    23724074.513    23724081.611
        23.000          23.000
 -12503468.744 3  -9742960.191 2  20476245.257    20476245.257    20476247.146
        40.000          40.000
 -20423538.880 3 -15914445.995 2  20918934.537    20918934.537    20918937.256
        41.000          41.000
   2431268.095 2   1895096.962 1  24604098.819    24604098.819    24604102.368
        17.000          16.000
 -13023187.501 3 -10147934.787 2  21015367.375    21015367.375    21015369.693
        39.000          39.000
    464959.604 2    362294.650 1  24654747.279    24654747.279    24654754.863
        18.000          18.000
  -1929339.172 2  -1503376.020 1  24759821.420    24759821.420    24759823.566
        13.000          13.000
  -4070851.706 3  -3166229.302 2  23476841.861    23476841.861    23476849.023
        38.000          39.000
   7310539.826 2   5685962.320 2  24168131.833    24168131.833    24168138.880
        29.000          36.000
 -18300234.309 3 -14233509.409 2  20658498.513    20658498.513    20658501.091
        48.000          35.000
  -1499181.426 3                  23105835.062    23105835.062
        37.000
  -2320242.057 3  -1804631.700 2  23997041.289    23997041.289    23997046.445
        38.000          37.000
 15  3 18  0  8  0.0000000  0 14G30G10G24G13G05G29G15G20G28R21R05R07
                                R23R08
  -9741656.119 2  -7590898.343 2  23767749.125    23767749.125    23767754.190
        25.000          26.000
    364556.715 2    284051.179 1  25573735.533    25573735.533    25573743.889
        17.000          16.000
  -1406445.559 2  -1095931.523 2  23702794.913    23702794.913    23702800.522
        23.000          23.000
 -12477450.005 3  -9722685.858 2  20481196.208    20481196.208    20481198.440
        40.000          40.000
 -20391437.381 3 -15889431.846 2  20925043.180    20925043.180    20925045.785
        41.000          41.000
   2503078.650 2   1951053.189 1  24617761.503    24617761.503    24617767.313
        17.000          17.000
 -13059475.687 3 -10176211.281 2  21008462.024    21008462.024    21008464.285
        39.000          39.000
    555790.245 2    433071.554 1  24672031.504    24672031.504    24672037.571
        17.000          18.000
  -1967912.511 2  -1533433.126 1  24752477.808    24752477.808    24752483.074
        13.000          13.000
  -3951990.167 3  -3073781.544 2  23499054.855    23499054.855    23499060.813
        39.000          39.000
   7388819.022 2   5746845.940 2  24182774.818    24182774.818    24182783.583
        28.000          35.000
 -18346687.319 3 -14269639.528 2  20649820.345    20649820.345    20649824.183
        48.000          47.000
  -1539126.147 3                  23098366.405    23098366.405
        36.000
  -2401973.281 3  -1868200.392 2  23981780.745    23981780.745    23981782.808
        37.000          36.000
 15  3 18  0  8 30.0000000  0 14G30G10G24G13G05G29G15G20G28R21R05R07
                                R23R08
  -9654362.798 2  -7522877.584 2  23784360.478    23784360.478    23784367.318
        26.000          26.000
    455326.215 2    354780.354 1  25591008.674    25591008.674    25591020.522
        16.000          16.000
  -1518132.378 2  -1182960.137 2  23681540.175    23681540.175    23681548.388
        24.000          24.000
 -12451126.048 3  -9702173.692 2  20486205.522    20486205.522    20486207.725
        40.000          40.000
 -20359010.897 3 -15864164.474 2  20931213.583    20931213.583    20931216.445
        41.000          41.000
   2574986.645 2   2007085.230 1  24631445.130    24631445.130    24631450.425
        17.000          17.000
 -13095463.610 3 -10204253.804 2  21001613.643    21001613.643    21001616.448
        39.000          40.000
    646745.369 2    503945.515 1  24689339.350    24689339.350    24689347.563
        17.000          17.000
  -2006175.701 2  -1563248.522 1  24745196.956    24745196.956    24745202.135
        13.000          13.000
  -3833126.242 3  -2981331.948 2  23521266.862    23521266.862    23521272.877
        38.000          39.000
   7467204.239 2   5807812.066 2  24197438.018    24197438.018    24197446.153
        29.000          36.000
 -18393009.501 3 -14305667.897 2  20641166.602    20641166.602    20641170.555
        48.000          47.000
  -1578358.175 3                  23091034.141    23091034.141
        38.000
  -2483769.004 3  -1931819.266 2  23966505.686    23966505.686    23966508.780
        38.000          36.000
 15  3 18  0  9  0.0000000  0 14G30G10G24G13G05G29G15G20G28R21R05R07
                                R23R08
  -9566751.119 2  -7454608.761 2  23801032.737    23801032.737    23801039.577
        25.000          25.000
    546170.488 2    425567.722 1  25608293.995    25608293.995    25608307.817
        16.000          16.000
  -1629678.350 2  -1269879.011 2  23660316.019    23660316.019    23660322.716
        24.000          23.000
 -12424494.194 3  -9681421.596 2  20491273.588    20491273.588    20491275.763
        40.000          40.000
 -20326254.735 3 -15838640.211 2  20937446.948    20937446.948    20937449.924
        41.000          41.000
   2646993.243 2   2063194.192 1  24645147.928    24645147.928    24645155.426
        19.000          19.000
 -13131147.207 3 -10232059.193 2  20994823.394    20994823.394    20994825.827
        40.000          40.000
    737829.273 2    574919.730 1  24706674.424    24706674.424    24706677.630
        15.000          15.000
  -2044121.944 2  -1592816.979 1  24737977.738    24737977.738    24737979.054
        13.000          13.000
  -3714259.498 3  -2888880.140 2  23543480.507    23543480.507    23543485.090
        38.000          38.000
   7545699.836 2   5868864.045 2  24212120.403    24212120.403    24212130.888
        28.000          35.000
 -18439195.437 3 -14341590.283 2  20632539.474    20632539.474    20632542.109
        48.000          47.000
  -1616871.268 3  -1257566.005 2  23083833.412    23083833.412    23083841.032
        38.000          33.000
  -2565624.619 3  -1995484.776 2  23951217.203    23951217.203    23951222.188
        37.000          35.000
 15  3 18  0  9 30.0000000  0 14G30G10G24G13G05G29G15G20G28R21R05R07
                                R23R08
  -9478834.695 2  -7386102.454 2  23817762.752    23817762.752    23817768.791
        25.000          25.000
    637078.013 1    496404.375 1  25625592.471    25625592.471    25625600.713
        12.000          12.000
  -1741092.380 2  -1356695.083 2  23639113.215    23639113.215    23639123.059
        25.000          24.000
 -12397566.722 3  -9660439.154 2  20496397.657    20496397.657    20496399.947
        40.000          40.000
 -20293179.373 3 -15812867.223 2  20943741.022    20943741.022    20943743.798
        41.000          41.000
   2719084.520 2   2119369.153 2  24658867.097    24658867.097    24658871.676
        19.000          20.000
 -13166537.891 3 -10259636.345 2  20988088.546    20988088.546    20988091.264
        39.000          39.000
    829030.248 2    645985.246 1  24724028.523    24724028.523    24724039.054
        17.000          17.000
  -2081759.693 2  -1622145.077 1  24730815.817    24730815.817    24730818.936
        13.000          13.000
  -3595405.520 3  -2796438.308 2  23565690.916    23565690.916    23565697.849
        39.000          39.000
   7624295.023 2   5929993.476 2  24226827.548    24226827.548    24226834.767
        28.000          36.000
 -18485255.607 3 -14377414.858 2  20623934.046    20623934.046    20623937.827
        48.000          47.000
  -1654675.672 3  -1286969.450 2  23076767.595    23076767.595    23076774.183
        38.000          33.000
  -2647551.306 3  -2059205.485 2  23935920.850    23935920.850    23935923.428
        36.000          35.000
 15  3 18  0 10  0.0000000  0 14G30G10G24G13G05G29G15G20G28R21R05R07
                                R23R08
  -9390610.232 2  -7317356.133 2  23834550.384    23834550.384    23834557.796
        25.000          25.000
    728053.732 2    567294.180 1  25642907.774    25642907.774    25642913.441
        14.000          14.000
  -1852365.503 2  -1443401.342 2  23617939.705    23617939.705    23617947.604
        24.000          24.000
 -12370338.882 3  -9639222.653 2  20501578.914    20501578.914    20501581.318
        40.000          40.000
 -20259779.005 3 -15786840.978 2  20950097.040    20950097.040    20950099.873
        41.000          41.000
   2791263.559 2   2175612.521 1  24672601.747    24672601.747    24672608.357
        14.000          15.000
 -13201630.035 3 -10286980.853 2  20981410.634    20981410.634    20981413.296
        39.000          39.000
    920353.257 2    717145.821 1  24741406.402    24741406.402    24741411.639
        17.000          17.000
  -2119081.339 1  -1651226.843 1  24723713.492    24723713.492    24723717.269
        12.000          12.000
  -3476562.352 3  -2704004.839 2  23587899.111    23587899.111    23587905.069
        38.000          38.000
   7702995.928 2   5991205.077 2  24241550.628    24241550.628    24241559.279
        30.000          35.000
 -18531182.497 3 -14413135.754 2  20615355.194    20615355.194    20615358.403
        48.000          47.000
  -1691763.965 3  -1315815.917 2  23069834.966    23069834.966    23069841.039
        38.000          33.000
  -2729543.154 3  -2122976.934 2  23920607.554    23920607.554    23920612.711
        37.000          35.000
 15  3 18  0 10 30.0000000  0 14G30G10G24G13G05G29G15G20G28R21R05R07
                                R23R08
  -9302080.214 2  -7248371.724 2  23851396.895    23851396.895    23851404.765
        24.000          24.000
    819097.329 2    638236.865 1  25660229.863    25660229.863    25660243.829
        16.000          16.000
  -1963495.210 2  -1529995.858 2  23596790.232    23596790.232    23596797.616
        25.000          26.000
 -12342812.170 3  -9617773.269 2  20506816.821    20506816.821    20506819.311
        40.000          40.000
 -20226053.211 3 -15760561.163 2  20956514.921    20956514.921    20956517.439
        41.000          41.000
   2863527.395 2   2231921.976 1  24686353.818    24686353.818    24686355.907
        13.000          13.000
 -13236424.001 3 -10314093.016 2  20974789.765    20974789.765    20974792.483
        39.000          39.000
   1011797.890 2    788401.168 1  24758808.914    24758808.914    24758816.327
        17.000          17.000
  -2156084.370 2  -1680060.297 1  24716671.997    24716671.997    24716677.520
        13.000          13.000
  -3357734.260 3  -2611583.110 2  23610105.653    23610105.653    23610112.356
        38.000          38.000
   7781802.931 2   6052499.198 2  24256293.968    24256293.968    24256301.359
        28.000          34.000
 -18576975.523 3 -14448752.553 2  20606800.014    20606800.014    20606804.139
        48.000          47.000
  -1728134.918 3  -1344104.474 2  23063033.797    23063033.797    23063041.245
        38.000          32.000
  -2811599.937 3  -2186798.878 2  23905285.438    23905285.438    23905288.245
        37.000          36.000
 15  3 18  0 11  0.0000000  0 14G30G10G24G13G05G29G15G20G28R21R05R07
                                R23R08
  -9213243.877 2  -7179148.616 2  23868303.123    23868303.123    23868308.961
        24.000          24.000
    910211.974 2    709234.852 1  25677569.803    25677569.803    25677578.675
        14.000          15.000
  -2074475.768 2  -1616474.155 2  23575673.305    23575673.305    23575680.431
        25.000          25.000
 -12314984.544 3  -9596089.409 2  20512112.455    20512112.455    20512114.715
        40.000          40.000
 -20191998.113 3 -15734024.733 2  20962995.295    20962995.295    20962997.585
        41.000          41.000
   2935876.291 2   2288297.664 2  24700119.911    24700119.911    24700124.919
        20.000          20.000
 -13270916.798 3 -10340970.505 2  20968226.016    20968226.016    20968228.563
        39.000          39.000
   1103366.725 2    859753.257 1  24776232.320    24776232.320    24776241.650
        14.000          14.000
  -2192763.311 1  -1708641.284 1  24709690.714    24709690.714    24709697.983
        12.000          13.000
  -3238921.828 3  -2519173.554 2  23632309.249    23632309.249    23632315.666
        38.000          38.000
   7860719.949 2   6113878.907 2  24271056.182    24271056.182    24271063.745
        28.000          34.000
 -18622629.700 3 -14484261.346 2  20598272.048    20598272.048    20598275.200
        48.000          47.000
  -1763783.690 3  -1371831.316 2  23056369.840    23056369.840    23056379.293
        37.000          33.000
  -2893718.205 3  -2250668.618 2  23889949.396    23889949.396    23889951.974
        38.000          35.000
 15  3 18  0 11 30.0000000  0 14G30G10G24G13G05G29G15G20G28R21R05R07
                                R23R08
  -9124109.311 2  -7109693.109 2  23885264.301    23885264.301    23885271.484
        24.000          24.000
   1001391.517 2    780283.449 1  25694921.240    25694921.240    25694933.832
        13.000          13.000
  -2185310.120 2  -1702838.529 2  23554582.875    23554582.875    23554588.971
        26.000          26.000
 -12286862.988 3  -9574176.514 2  20517463.789    20517463.789    20517466.307
        40.000          40.000
 -20157618.211 3 -15707235.216 2  20969537.879    20969537.879    20969540.426
        41.000          41.000
   3008301.691 2   2344732.950 2  24713904.273    24713904.273    24713907.965
        21.000          21.000
 -13305114.253 3 -10367617.847 2  20961718.456    20961718.456    20961721.003
        39.000          39.000
   1195053.511 2    931197.285 1  24793681.334    24793681.334    24793690.979
        15.000          15.000
  -2229121.486 2  -1736972.284 1  24702774.319    24702774.319    24702776.952
        14.000          14.000
  -3120134.937 3  -2426783.873 2  23654507.257    23654507.257    23654512.413
        38.000          36.000
   7939741.388 2   6175339.806 2  24285838.817    24285838.817    24285846.896
        28.000          34.000
 -18668149.793 3 -14519665.866 2  20589768.006    20589768.006    20589771.845
        48.000          47.000
  -1798714.387 3  -1398999.631 2  23049838.979    23049838.979    23049849.292
        37.000          33.000
  -2975903.402 3  -2314590.432 2  23874600.276    23874600.276    23874605.318
        36.000          36.000
 15  3 18  0 12  0.0000000  0 14G30G10G24G13G05G29G15G20G28R21R05R07
                                R23R08
  -9034670.402 2  -7040000.488 2  23902284.370    23902284.370    23902290.465
        25.000          25.000
   1092643.904 2    851388.853 1  25712284.522    25712284.522    25712298.287
        15.000          15.000
  -2295987.147 2  -1789080.302 2  23533520.375    23533520.375    23533527.759
        27.000          27.000
 -12258440.131 3  -9552028.839 2  20522872.325    20522872.325    20522874.987
        40.000          40.000
 -20122905.297 3 -15680186.209 2  20976143.042    20976143.042    20976146.047
        40.000          40.000
   3080809.263 2   2401232.287 1  24727701.708    24727701.708    24727706.659
        19.000          19.000
 -13339007.860 3 -10394028.441 2  20955268.594    20955268.594    20955271.285
        39.000          39.000
   1286866.033 2   1002739.289 1  24811152.856    24811152.856    24811159.323
        16.000          16.000
  -2265147.616 2  -1765044.578 1  24695917.541    24695917.541    24695921.891
        14.000          14.000
  -3001368.918 3  -2334410.433 2  23676700.428    23676700.428    23676708.392
        38.000          38.000
   8018876.380 2   6236889.043 2  24300641.734    24300641.734    24300651.932
        28.000          33.000
 -18713526.172 3 -14554958.598 2  20581291.164    20581291.164    20581295.060
        48.000          47.000
  -1832917.597 3  -1425602.148 2  23043444.794    23043444.794    23043454.419
        38.000          33.000
  -3058146.623 3  -2378557.400 2  23859241.637    23859241.637    23859247.710
        36.000          35.000
 15  3 18  0 12 30.0000000  0 14G30G10G24G13G05G29G15G20G28R21R05R07
                                R23R08
  -8944947.308 2  -6970086.418 2  23919358.812    23919358.812    23919364.907
        24.000          24.000
   1183951.112 2    922536.944 1  25729661.585    25729661.585    25729672.660
        13.000          13.000
  -2406521.973 2  -1875211.261 2  23512486.550    23512486.550    23512491.358
        27.000          27.000
 -12229734.932 3  -9529661.162 2  20528334.735    20528334.735    20528337.397
        40.000          40.000
 -20087876.505 3 -15652891.073 2  20982809.145    20982809.145    20982811.749
        41.000          40.000
   3153378.239 2   2457779.429 1  24741509.360    24741509.360    24741514.826
        14.000          14.000
 -13372615.613 3 -10420216.279 2  20948873.427    20948873.427    20948875.831
        39.000          39.000
   1378786.195 2   1074365.093 1  24828643.994    24828643.994    24828653.868
        16.000          17.000
  -2300857.636 2  -1792870.534 1  24689119.828    24689119.828    24689126.582
        14.000          14.000
  -2882645.783 3  -2242070.334 2  23698886.772    23698886.772    23698894.278
        37.000          37.000
   8098107.394 2   6298512.930 2  24315467.011    24315467.011    24315474.230
        27.000          34.000
 -18758775.351 3 -14590152.391 2  20572839.740    20572839.740    20572842.089
        48.000          47.000
  -1866409.706 3  -1451651.574 2  23037185.973    23037185.973    23037193.593
        38.000          34.000
  -3140465.848 3  -2442583.447 2  23843870.926    23843870.926    23843872.931
        37.000          36.000
 15  3 18  0 13  0.0000000  0 14G30G10G24G13G05G29G15G20G28R21R05R07
                                R23R08
  -8854925.418 2  -6899939.533 2  23936488.880    23936488.880    23936494.575
        24.000          24.000
   1275329.807 1    993740.787 1  25747049.533    25747049.533    25747057.976
        11.000          11.000
  -2516894.670 2  -1961215.912 2  23491483.862    23491483.862    23491490.072
        27.000          27.000
 -12200731.648 3  -9507061.209 2  20533853.910    20533853.910    20533856.285
        40.000          40.000
 -20052514.278 3 -15625336.110 2  20989538.142    20989538.142    20989541.147
        41.000          41.000
   3226023.363 2   2514386.029 1  24755336.053    24755336.053    24755337.856
        14.000          14.000
 -13405920.701 3 -10446168.279 2  20942535.775    20942535.775    20942537.864
        39.000          39.000
   1470830.365 2   1146087.604 1  24846156.990    24846156.990    24846165.919
        15.000          16.000
  -2336231.890 1  -1820434.851 1  24682389.733    24682389.733    24682396.373
        12.000          11.000
  -2763952.062 3  -2149753.143 2  23721067.267    23721067.267    23721075.632
        36.000          37.000
   8177452.041 2   6360225.225 2  24330308.427    24330308.427    24330318.969
        27.000          32.000
 -18803878.900 3 -14625232.934 2  20564411.880    20564411.880    20564416.979
        48.000          47.000
  -1899172.265 3  -1477133.586 2  23031061.905    23031061.905    23031067.978
        39.000          33.000
  -3222843.493 3  -2506654.961 2  23828487.485    23828487.485    23828489.089
        37.000          35.000
 15  3 18  0 13 30.0000000  0 14G30G10G24G13G05G29G15G20G28R21R05R07
                                R23R08
  -8764612.139 2  -6829565.569 2  23953674.736    23953674.736    23953682.434
        24.000          24.000
   1366774.672 1   1064996.152 1  25764452.230    25764452.230    25764461.732
        11.000          10.000
  -2627107.738 2  -2047096.168 2  23470510.304    23470510.304    23470518.489
        27.000          27.000
 -12171436.739 3  -9484234.009 2  20539428.648    20539428.648    20539430.909
        40.000          40.000
 -20016822.996 3 -15597524.737 2  20996330.184    20996330.184    20996332.874
        41.000          41.000
   3298736.654 2   2571045.725 1  24769172.386    24769172.386    24769175.191
        19.000          18.000
 -13438928.524 3 -10471888.646 2  20936254.494    20936254.494    20936256.870
        39.000          40.000
   1562993.069 2   1217902.373 1  24863700.086    24863700.086    24863704.980
        15.000          15.000
  -2371273.036 2  -1847739.542 1  24675721.256    24675721.256    24675724.833
        13.000          13.000
  -2645296.817 3  -2057465.866 2  23743242.623    23743242.623    23743248.409
        37.000          37.000
   8256906.032 2   6422022.575 2  24345168.961    24345168.961    24345177.727
        26.000          34.000
 -18848840.669 3 -14660203.193 2  20556013.978    20556013.978    20556017.415
        48.000          48.000
  -1931209.119 3  -1502051.181 2  23025072.079    23025072.079    23025078.553
        38.000          33.000
  -3305284.087 3  -2570775.389 2  23813093.191    23813093.191    23813095.025
        36.000          36.000
 15  3 18  0 14  0.0000000  0 14G30G10G24G13G05G29G15G20G28R21R05R07
                                R23R08
  -8674011.543 2  -6758967.747 2  23970915.350    23970915.350    23970921.560
        25.000          25.000
   1458283.852 2   1136301.466 1  25781866.472    25781866.472    25781872.682
        14.000          14.000
  -2737160.295 2  -2132851.331 2  23449567.377    23449567.377    23449575.304
        27.000          27.000
 -12141852.241 3  -9461181.149 2  20545058.418    20545058.418    20545060.736
        40.000          40.000
 -19980803.821 3 -15569457.870 2  21003184.525    21003184.525    21003187.157
        41.000          41.000
   3371513.722 2   2627755.042 1  24783020.745    24783020.745    24783024.665
        18.000          18.000
 -13471640.683 3 -10497378.625 2  20930029.350    20930029.350    20930032.040
        40.000          40.000
   1655271.895 2   1289807.649 1  24881258.750    24881258.750    24881269.081
        16.000          16.000
  -2405980.384 1  -1874784.217 1  24669116.758    24669116.758    24669120.478
        12.000          12.000
  -2526685.752 3  -1965212.957 2  23765407.854    23765407.854    23765415.016
        37.000          37.000
   8336467.682 2   6483903.553 2  24360053.926    24360053.926    24360066.130
        24.000          31.000
 -18893660.615 3 -14695063.149 2  20547640.554    20547640.554    20547644.851
        49.000          47.000
  -1962520.742 3  -1526404.701 2  23019219.298    23019219.298    23019227.892
        39.000          32.000
  -3387789.488 3  -2634946.259 2  23797684.922    23797684.922    23797687.558
        37.000          35.000
 15  3 18  0 14 30.0000000  0 14G30G10G24G13G05G29G15G20G28R21R05R07
                                R23R08
  -8583128.163 2  -6688149.577 2  23988208.947    23988208.947    23988218.935
        23.000          23.000
   1549854.426 2   1207654.813 1  25799293.265    25799293.265    25799304.884
        13.000          13.000
  -2847051.586 2  -2218480.854 2  23428656.643    23428656.643    23428662.910
        28.000          27.000
 -12111982.233 3  -9437905.828 2  20550742.278    20550742.278    20550744.711
        40.000          40.000
 -19944458.108 3 -15541136.561 2  21010100.987    21010100.987    21010103.706
        41.000          41.000
   3444349.655 2   2684510.240 1  24796881.366    24796881.366    24796885.316
        17.000          16.000
 -13504059.458 3 -10522639.986 2  20923860.346    20923860.346    20923862.979
        40.000          40.000
   1747664.302 1   1361801.495 1  24898839.202    24898839.202    24898846.700
        12.000          12.000
  -2440353.717 1  -1901568.535 1  24662575.696    24662575.696    24662581.534
        12.000          12.000
  -2408124.849 3  -1872999.069 2  23787564.389    23787564.389    23787570.920
        37.000          37.000
   8416135.169 2   6545866.865 2  24374960.898    24374960.898    24374967.429
        25.000          32.000
 -18938339.998 3 -14729813.779 2  20539294.731    20539294.731    20539297.653
        48.000          47.000
  -1993108.458 3  -1550195.186 2  23013501.674    23013501.674    23013508.320
        39.000          33.000
  -3470361.017 3  -2699168.585 2  23782266.190    23782266.190    23782268.596
        36.000          36.000
 15  3 18  0 15  0.0000000  0 14G30G10G24G13G05G29G15G20G28R21R05R07
                                R23R08
  -8491959.646 2  -6617109.204 2  24005558.584    24005558.584    24005565.596
        23.000          24.000
   1641490.854 2   1279059.440 1  25816731.029    25816731.029    25816739.643
        13.000          13.000
  -2956774.072 2  -2303978.845 2  23407776.121    23407776.121    23407782.703
        27.000          27.000
 -12081822.880 3  -9414405.043 2  20556481.434    20556481.434    20556484.038
        40.000          40.000
 -19907781.340 3 -15512557.286 2  21017080.484    21017080.484    21017082.745
        41.000          41.000
   3517246.167 2   2741312.645 1  24810752.714    24810752.714    24810757.436
        16.000          17.000
 -13536180.639 3 -10547669.478 2  20917747.952    20917747.952    20917750.499
        40.000          40.000
   1840174.424 2   1433886.966 1  24916445.638    24916445.638    24916452.192
        14.000          14.000
  -2474386.060 2  -1928087.201 1  24656099.114    24656099.114    24656103.722
        13.000          13.000
  -2289613.182 3  -1780823.436 2  23809710.342    23809710.342    23809717.904
        38.000          37.000
   8495914.047 2   6607916.889 2  24389881.293    24389881.293    24389888.398
        26.000          31.000
 -18982872.686 3 -14764450.317 2  20530975.140    20530975.140    20530979.151
        48.000          48.000
  -2022966.224 3  -1573417.924 2  23007919.546    23007919.546    23007927.166
        39.000          32.000
  -3552993.718 3  -2763438.457 2  23766832.943    23766832.943    23766836.496
        36.000          36.000
 15  3 18  0 15 30.0000000  0 14G30G10G24G13G05G29G15G20G28R21R05R07
                                R23R08
  -8400513.312 2  -6545852.358 2  24022960.767    24022960.767    24022966.834
        24.000          24.000
   1733188.337 2   1350511.525 1  25834177.885    25834177.885    25834190.334
        13.000          13.000
  -3066329.662 2  -2389346.774 2  23386929.747    23386929.747    23386935.757
        28.000          28.000
 -12051380.246 3  -9390683.520 2  20562274.555    20562274.555    20562276.587
        40.000          40.000
 -19870777.490 3 -15483723.139 2  21024121.450    21024121.450    21024124.370
        41.000          40.000
   3590195.401 2   2798156.164 1  24824635.317    24824635.317    24824640.640
        17.000          17.000
 -13568008.972 3 -10572470.758 2  20911691.058    20911691.058    20911693.691
        40.000          40.000
   1932796.764 2   1506059.892 1  24934068.726    24934068.726    24934080.832
        14.000          14.000
  -2508079.998 2  -1954342.147 1  24649686.322    24649686.322    24649692.618
        14.000          14.000
  -2171159.479 3  -1688692.923 2  23831847.091    23831847.091    23831852.132
        37.000          35.000
   8575799.631 2                  24404829.792    24404829.792
        24.000
 -19027262.100 3 -14798975.409 2  20522682.926    20522682.926    20522686.191
        48.000          37.000
  -2052097.440 3  -1596075.516 2  23002473.298    23002473.298    23002480.976
        39.000          33.000
  -3635692.529 3  -2827759.731 2  23751389.768    23751389.768    23751393.034
        36.000          36.000
 15  3 18  0 16  0.0000000  0 14G30G10G24G13G05G29G15G20G28R21R05R07
                                R23R08
  -8308787.809 2  -6474377.986 2  24040414.008    24040414.008    24040421.191
        23.000          23.000
   1824949.850 1   1422013.555 1  25851641.903    25851641.903    25851657.557
        10.000          10.000
  -3175712.760 2  -2474580.304 2  23366113.900    23366113.900    23366120.997
        28.000          28.000
 -12020651.733 3  -9366739.229 2  20568121.736    20568121.736    20568124.255
        40.000          40.000
 -19833442.117 3 -15454630.664 2  21031226.559    21031226.559    21031229.421
        41.000          41.000
   3663198.680 2   2855041.823 1  24838525.586    24838525.586    24838531.568
        17.000          17.000
 -13599540.866 3 -10597041.051 2  20905690.724    20905690.724    20905693.471
        40.000          40.000
   2025534.440 2   1578322.667 1  24951718.280    24951718.280    24951725.320
        13.000          13.000
  -2541429.551 2  -1980328.770 1  24643342.675    24643342.675    24643346.767
        14.000          14.000
  -2052763.986 3  -1596607.698 2  23853972.939    23853972.939    23853979.299
        37.000          37.000
   8655796.343 2   6732269.125 2  24419793.337    24419793.337    24419804.910
        23.000          30.000
 -19071503.313 3 -14833385.248 2  20514417.852    20514417.852    20514422.207
        48.000          47.000
  -2080497.661 3  -1618164.590 2  22997164.787    22997164.787    22997171.261
        39.000          33.000
  -3718452.978 3  -2892128.965 2  23735934.868    23735934.868    23735939.624
        36.000          37.000
 15  3 18  0 16 30.0000000  0 14G30G10G24G13G05G29G15G20G28R21R05R07
                                R23R08
  -8216790.663 2  -6402691.955 2  24057921.269    24057921.269    24057927.851
        23.000          23.000
   1916769.773 2   1493561.084 1  25869115.270    25869115.270    25869123.941
        14.000          14.000
  -3284925.416 2  -2559681.018 2  23345332.171    23345332.171    23345339.240
        28.000          28.000
 -11989643.642 3  -9342577.087 2  20574022.543    20574022.543    20574024.890
        39.000          39.000
 -19795780.309 3 -15425283.820 2  21038393.150    21038393.150    21038396.183
        41.000          41.000
   3736248.067 2   2911963.371 1  24852428.171    24852428.171    24852430.346
        18.000          18.000
 -13630781.808 3 -10621384.632 2  20899745.962    20899745.962    20899748.280
        40.000          40.000
   2118381.809 2   1650670.926 1  24969387.799    24969387.799    24969393.408
        14.000          15.000
  -2574437.597 2  -2006049.245 1  24637061.799    24637061.799    24637069.468
        14.000          14.000
  -1934435.708 3  -1504574.751 2  23876083.224    23876083.224    23876090.042
        37.000          35.000
   8735898.891 2   6794570.825 2  24434781.011    24434781.011    24434788.975
        25.000          30.000
 -19115599.933 3 -14867682.620 2  20506180.031    20506180.031    20506184.328
        48.000          47.000
  -2108171.482 3  -1639688.700 2  22991990.770    22991990.770    22991998.332
        39.000          33.000
  -3801279.920 3  -2956549.927 2  23720469.470    23720469.470    23720471.934
        37.000          38.000
 15  3 18  0 17  0.0000000  0 14G30G10G24G13G05G29G15G20G28R21R05R07
                                R23R08
  -8124518.841 2  -6330791.853 2  24075479.450    24075479.450    24075488.294
        23.000          24.000
   2008653.524 1   1565158.312 1  25886598.245    25886598.245    25886610.236
        11.000          11.000
  -3393959.248 2  -2644642.392 2  23324583.369    23324583.369    23324588.148
        27.000          27.000
 -11958351.722 3  -9318193.781 2  20579977.405    20579977.405    20579979.780
        40.000          40.000
 -19757786.008 3 -15395677.906 2  21045623.413    21045623.413    21045626.247
        41.000          41.000
   3809346.197 2   2968922.850 1  24866336.410    24866336.410    24866342.019
        17.000          16.000
 -13661726.600 3 -10645497.451 2  20893857.383    20893857.383    20893859.759
        40.000          40.000
   2211343.632 1   1723108.404 1  24987077.818    24987077.818    24987086.661
        12.000          12.000
  -2607096.243 1  -2031497.449 1  24630846.217    24630846.217    24630848.707
        11.000          11.000
  -1816172.773 3  -1412592.612 2  23898184.144    23898184.144    23898191.821
        36.000          37.000
   8816113.849 2   6856959.895 2  24449785.629    24449785.629    24449796.343
        24.000          30.000
 -19159545.163 3 -14901862.240 2  20497971.746    20497971.746    20497974.725
        48.000          48.000
  -2135111.437 3  -1660642.001 2  22986955.439    22986955.439    22986963.173
        39.000          32.000
  -3884167.552 3  -3021018.048 2  23704990.001    23704990.001    23704991.834
        36.000          36.000
 15  3 18  0 17 30.0000000  0 14G30G10G24G13G05G29G15G20G28R21R05R07
                                R23R08
  -8031976.513 2  -6258681.021 2  24093089.479    24093089.479    24093096.290
        22.000          23.000
   2100598.749 1   1636803.569 1  25904096.357    25904096.357    25904099.906
        11.000          11.000
  -3502813.843 2  -2729464.099 2  23303868.366    23303868.366    23303875.062
        28.000          28.000
 -11926779.262 3  -9293591.869 2  20585985.650    20585985.650    20585987.854
        40.000          40.000
 -19719460.589 3 -15365813.967 2  21052916.558    21052916.558    21052919.678
        41.000          40.000
   3882488.700 2   3025916.931 1  24880255.349    24880255.349    24880261.444
        18.000          18.000
 -13692377.165 3 -10669381.004 2  20888024.635    20888024.635    20888026.953
        40.000          40.000
   2304417.518 2   1795633.156 1  25004790.229    25004790.229    25004795.895
        13.000          13.000
  -2639405.365 2  -2056673.363 1  24624698.916    24624698.916    24624700.376
        14.000          14.000
  -1697980.973 3  -1320665.781 2  23920273.031    23920273.031    23920277.672
        36.000          33.000
   8896439.549 2   6919435.051 2  24464807.850    24464807.850    24464818.105
        26.000          31.000
 -19203339.524 3 -14935924.521 2  20489789.846    20489789.846    20489793.742
        48.000          48.000
  -2161318.936 3  -1681025.653 2  22982055.641    22982055.641    22982063.547
        39.000          33.000
  -3967117.137 3  -3085534.388 2  23689499.590    23689499.590    23689503.199
        37.000          37.000
 15  3 18  0 18  0.0000000  0 14G30G10G24G13G05G29G15G20G28R21R05R07
                                R23R08
  -7939170.547 2  -6186364.719 2  24110749.907    24110749.907    24110755.774
        23.000          24.000
   2192600.620 1   1708492.890 1  25921602.454    25921602.454    25921608.149
         8.000           8.000
  -3611490.491 2  -2814147.148 2  23283187.920    23283187.920    23283194.302
        28.000          28.000
 -11894931.551 3  -9268775.485 2  20592046.172    20592046.172    20592048.147
        40.000          40.000
 -19680807.780 3 -15335694.917 2  21060271.803    21060271.803    21060274.637
        41.000          41.000
   3955668.045 2   3082939.755 1  24894182.134    24894182.134    24894187.200
        18.000          18.000
 -13722737.819 3 -10693038.646 2  20882247.261    20882247.261    20882249.465
        40.000          40.000
   2397598.584 2   1868241.415 1  25022523.588    25022523.588    25022528.281
        14.000          14.000
  -2671366.835 2  -2081578.345 1  24618616.852    24618616.852    24618619.914
        15.000          15.000
  -1579868.498 3  -1228800.699 2  23942343.460    23942343.460    23942351.595
        35.000          36.000
   8976871.699 2   6981993.136 2  24479860.844    24479860.844    24479863.365
        21.000          29.000
 -19246985.950 3 -14969871.754 2  20481636.918    20481636.918    20481639.783
        48.000          48.000
  -2186797.700 3  -1700842.473 2  22977293.508    22977293.508    22977300.440
        40.000          33.000
  -4050133.075 3  -3150102.319 2  23673994.777    23673994.777    23673999.016
        35.000          37.000
 15  3 18  0 18 30.0000000  0 14G30G10G24G13G05G29G15G20G28R21R05R07
                                R23R08
  -7846099.899 2  -6113842.178 2  24128463.573    24128463.573    24128467.666
        22.000          22.000
                                  25939125.212

  -3719983.485 2  -2898687.108 2  23262542.242    23262542.242    23262548.424
        28.000          28.000
 -11862806.329 3  -9243742.857 2  20598159.124    20598159.124    20598161.443
        40.000          40.000
 -19641823.905 3 -15305317.900 2  21067690.504    21067690.504    21067692.822
        40.000          40.000
   4028885.180 2   3139992.035 1  24908113.836    24908113.836    24908121.077
        16.000          16.000
 -13752805.686 3 -10716468.137 2  20876525.592    20876525.592    20876527.853
        40.000          40.000
   2490889.578 2   1940935.365 1  25040275.784    25040275.784    25040285.915
        14.000          15.000
  -2702975.126 2  -2106208.132 1  24612601.351    24612601.351    24612607.332
        16.000          16.000
  -1461835.778 3  -1136997.602 2  23964399.967    23964399.967    23964410.051
        35.000          35.000
   9057414.746 2   7044637.422 2  24494925.650    24494925.650    24494933.384
        25.000          32.000
 -19290479.538 3 -15003700.090 2  20473510.780    20473510.780    20473515.994
        48.000          48.000
  -2211543.242 3  -1720089.006 2  22972667.355    22972667.355    22972675.147
        39.000          33.000
  -4133211.363 3  -3214718.768 2  23658483.446    23658483.446    23658487.514
        38.000          38.000
 15  3 18  0 19  0.0000000  0 12G30G24G13G05G29G15G20G28R21R07R23R08
  -7752768.167 2  -6041116.217 2  24146222.190    24146222.190    24146230.547
        22.000          23.000
  -3828290.991 2  -2983082.539 2  23241933.223    23241933.223    23241938.317
        28.000          28.000
 -11830406.094 3  -9218495.929 2  20604324.728    20604324.728    20604326.789
        40.000          40.000
 -19602509.856 3 -15274683.594 2  21075171.063    21075171.063    21075174.182
        40.000          40.000
   4102135.626 2   3197070.221 1  24922053.912    24922053.912    24922060.837
        19.000          19.000
 -13782582.265 3 -10739670.670 2  20870859.392    20870859.392    20870861.710
        40.000          40.000
   2584288.948 2   2013713.786 1  25058048.524    25058048.524    25058055.621
        13.000          13.000
  -2734229.352 2  -2130562.046 1  24606653.350    24606653.350    24606657.271
        15.000          16.000
  -1343887.774 3  -1045260.442 2  23986442.934    23986442.934    23986449.465
        36.000          36.000
 -19333820.376 3 -15037409.635 2  20465415.521    20465415.521    20465418.615
        48.000          48.000
  -2235555.908 3  -1738765.546 2  22968178.697    22968178.697    22968184.999
        39.000          32.000
  -4216352.732 3  -3279384.319 2  23642956.272    23642956.272    23642959.538
        36.000          37.000
 15  3 18  0 19 30.0000000  0 13G30G10G24G13G05G29G15G20G28R21R07R23
                                R08
  -7659178.517 2  -5968189.261 2  24164031.898    24164031.898    24164037.450
        23.000          23.000
                                  25974195.580

  -3936411.752 2  -3067332.408 2  23221358.095    23221358.095    23221365.221
        28.000          28.000
 -11797732.703 3  -9193036.146 2  20610542.490    20610542.490    20610544.637
        40.000          40.000
 -19562865.440 3 -15243791.865 2  21082715.729    21082715.729    21082718.247
        41.000          41.000
   4175416.527 2   3254172.147 1  24936002.305    24936002.305    24936004.051
        18.000          17.000
 -13812068.466 3 -10762646.927 2  20865248.339    20865248.339    20865250.371
        40.000          40.000
   2677795.291 2   2086575.502 1  25075840.557    25075840.557    25075848.370
        14.000          14.000
  -2765127.867 2  -2154638.799 1  24600773.056    24600773.056    24600780.296
        15.000          15.000
  -1226028.859 3   -953592.605 2  24008467.671    24008467.671    24008474.833
        36.000          36.000
 -19377007.628 3 -15070999.716 2  20457345.697    20457345.697    20457351.082
        48.000          48.000
  -2258835.783 3  -1756872.117 2  22963826.338    22963826.338    22963834.531
        39.000          33.000
  -4299557.825 3  -3344099.370 2  23627419.854    23627419.854    23627420.771
        38.000          38.000
 15  3 18  0 20  0.0000000  0 13G30G10G24G13G05G29G15G20G28R21R07R23
                                R08
  -7565330.990 2  -5895061.333 2  24181890.780    24181890.780    24181897.448
        23.000          23.000
                                  25991746.521

  -4044339.422 2  -3151431.844 2  23200819.988    23200819.988    23200825.425
        28.000          28.000
 -11764785.006 3  -9167362.640 2  20616812.122    20616812.122    20616814.239
        40.000          40.000
 -19522888.470 3 -15212640.993 2  21090322.847    21090322.847    21090325.909
        41.000          40.000
   4248727.368 2   3311297.474 1  24949949.657    24949949.657    24949950.143
        16.000          16.000
 -13841262.032 3 -10785395.158 2  20859692.994    20859692.994    20859695.198
        40.000          40.000
   2771410.023 2   2159521.769 1  25093654.217    25093654.217    25093666.580
        15.000          15.000
  -2795665.995 2  -2178434.687 1  24594961.207    24594961.207    24594965.614
        16.000          16.000
  -1108260.487 3   -861995.131 2  24030475.852    24030475.852    24030483.530
        35.000          36.000
 -19420037.246 3 -15104467.193 2  20449309.565    20449309.565    20449313.347
        48.000          48.000
  -2281379.537 3  -1774406.144 2  22959612.571    22959612.571    22959617.899
        39.000          32.000
  -4382823.395 3  -3408861.482 2  23611870.658    23611870.658    23611873.924
        38.000          39.000
 15  3 18  0 20 30.0000000  0 12G30G24G13G05G29G15G20G28R21R07R23R08
  -7471226.675 2  -5821733.338 2  24199798.142    24199798.142    24199806.642
        22.000          22.000
  -4152070.979 2  -3235378.490 2  23180318.657    23180318.657    23180324.753
        28.000          28.000
 -11731562.794 3  -9141475.208 2  20623133.710    20623133.710    20623136.200
        40.000          40.000
 -19482577.113 3 -15181229.587 2  21097994.043    21097994.043    21097996.790
        41.000          41.000
   4322066.573 2   3368444.831 1  24963906.457    24963906.457    24963913.068
        17.000          17.000
 -13870161.931 3 -10807914.553 2  20854193.404    20854193.404    20854195.522
        40.000          40.000
   2865133.731 2   2232552.825 1  25111491.923    25111491.923    25111498.219
        14.000          14.000
  -2825840.426 2  -2201947.190 1  24589220.291    24589220.291    24589227.188
        15.000          15.000
   -990585.042 3   -770469.931 2  24052466.924    24052466.924    24052474.085
        35.000          34.000
 -19462906.649 3 -15137810.067 2  20441300.681    20441300.681    20441304.405
        48.000          48.000
  -2303185.642 3  -1791366.490 2  22955534.716    22955534.716    22955542.050
        39.000          32.000
  -4466147.797 3  -3473669.319 2  23596310.017    23596310.017    23596312.423
        37.000          38.000
 15  3 18  0 21  0.0000000  0 12G30G24G13G05G29G15G20G28R21R07R23R08
  -7376875.173 2  -5748212.727 2  24217753.875    24217753.875    24217759.198
        22.000          22.000
  -4259610.911 2  -3319175.786 2  23159854.460    23159854.460    23159860.384
        28.000          28.000
 -11698074.517 3  -9115380.455 2  20629506.259    20629506.259    20629509.063
        40.000          40.000
 -19441938.024 3 -15149562.776 2  21105727.558    21105727.558    21105730.449
        41.000          41.000
   4395424.352 2   3425606.696 1  24977865.827    24977865.827    24977869.433
        16.000          17.000
 -13898775.606 3 -10830210.927 2  20848748.696    20848748.696    20848750.413
        39.000          40.000
   2958959.201 2   2305663.239 1  25129345.916    25129345.916    25129350.982
        14.000          14.000
  -2855656.272 2  -2225180.287 1  24583546.589    24583546.589    24583552.027
        15.000          16.000
   -873013.550 3   -679025.593 2  24074437.547    24074437.547    24074445.454
        35.000          35.000
 -19505621.942 3 -15171033.075 2  20433322.016    20433322.016    20433325.453
        49.000          49.000
  -2324260.321 3  -1807757.940 2  22951596.353    22951596.353    22951602.827
        40.000          32.000
  -4549538.203 3  -3538528.578 2  23580737.767    23580737.767    23580740.803
        39.000          38.000
 15  3 18  0 21 30.0000000  0 12G30G24G13G05G29G15G20G28R21R07R23R08
  -7282272.995 2  -5674496.768 2  24235754.457    24235754.457    24235759.837
        22.000          22.000
  -4366950.425 2  -3402816.923 2  23139429.077    23139429.077    23139434.457
        28.000          28.000
 -11664315.410 3  -9089074.673 2  20635930.340    20635930.340    20635933.345
        40.000          39.000
 -19400965.037 3 -15117635.792 2  21113524.414    21113524.414    21113527.504
        41.000          41.000
   4468803.762 2   3482785.360 1  24991827.089    24991827.089    24991835.074
        16.000          16.000
 -13927097.201 3 -10852279.695 2  20843359.049    20843359.049    20843361.367
        40.000          40.000
   3052891.314 2   2378856.748 1  25147219.404    25147219.404    25147226.558
        14.000          14.000
  -2885105.449 2  -2248127.627 1  24577941.750    24577941.750    24577946.443
        15.000          15.000
   -755543.698 3   -587660.340 2  24096390.225    24096390.225    24096397.731
        36.000          34.000
 -19548175.168 3 -15204130.039 2  20425371.537    20425371.537    20425375.376
        49.000          48.000
  -2344596.972 3  -1823575.320 2  22947793.182    22947793.182    22947801.489
        39.000          31.000
  -4632987.878 3  -3603433.856 2  23565152.891    23565152.891    23565157.245
        37.000          41.000
 15  3 18  0 22  0.0000000  0 12G30G24G13G05G29G15G20G28R21R07R23R08
  -7187424.687 2  -5600589.044 2  24253801.135    24253801.135    24253807.088
        22.000          22.000
  -4474089.176 2  -3486301.615 2  23119040.279    23119040.279    23119045.488
        27.000          28.000
 -11630288.783 3  -9062560.434 2  20642405.829    20642405.829    20642408.319
        40.000          40.000
 -19359659.975 3 -15085450.055 2  21121384.306    21121384.306    21121387.168
        41.000          41.000
   4542200.053 2   3539977.221 1  25005795.332    25005795.332    25005801.284
        17.000          17.000
 -13955129.160 3 -10874122.776 2  20838024.785    20838024.785    20838027.160
        40.000          40.000
   3146927.200 1   2452131.035 1  25165116.347    25165116.347    25165124.933
        12.000          12.000
  -2914188.136 2  -2270789.413 1  24572408.181    24572408.181    24572415.307
        16.000          16.000
   -638181.312 3   -496378.621 2  24118323.672    24118323.672    24118330.776
        35.000          35.000
 -19590567.432 3 -15237101.793 2  20417452.976    20417452.976    20417456.757
        49.000          49.000
  -2364197.366 3  -1838820.090 2  22944129.231    22944129.231    22944137.939
        39.000          33.000
  -4716498.474 3  -3668386.485 2  23549558.463    23549558.463    23549561.270
        38.000          38.000
 15  3 18  0 22 30.0000000  0 12G30G24G13G05G29G15G20G28R21R07R23R08
  -7092330.428 2  -5526489.654 2  24271898.707    24271898.707    24271903.458
        22.000          21.000
  -4581022.490 2  -3569626.252 2  23098692.675    23098692.675    23098698.112
        28.000          28.000
 -11595993.173 3  -9035836.601 2  20648932.044    20648932.044    20648934.849
        40.000          40.000
 -19318020.074 3 -15053003.413 2  21129307.891    21129307.891    21129310.924
        40.000          40.000
   4615612.343 2   3597181.540 1  25019764.423    25019764.423    25019770.433
        17.000          17.000
 -13982869.649 3 -10895738.739 2  20832745.675    20832745.675    20832748.394
        39.000          40.000
   3241068.407 1   2525487.526 1  25183029.032    25183029.032    25183039.163
        12.000          12.000
  -2942899.630 2  -2293161.981 1  24566944.259    24566944.259    24566949.009
        15.000          15.000
   -520927.855 3   -405181.690 2  24140233.703    24140233.703    24140241.724
        35.000          36.000
 -19632794.686 3 -15269945.222 2  20409564.361    20409564.361    20409568.486
        49.000          49.000
  -2383058.624 3  -1853489.958 2  22940603.777    22940603.777    22940611.397
        40.000          32.000
  -4800067.346 3  -3733384.560 2  23533953.438    23533953.438    23533955.443
        38.000          38.000
 15  3 18  0 23  0.0000000  0 12G30G24G13G05G29G15G20G28R21R07R23R08
  -6996998.635 2  -5452205.143 2  24290039.381    24290039.381    24290048.138
        22.000          23.000
  -4687753.289 2  -3652793.069 2  23078382.348    23078382.348    23078387.700
        27.000          27.000
 -11561436.123 3  -9008909.041 2  20655507.979    20655507.979    20655510.584
        40.000          40.000
 -19276050.605 3 -15020299.941 2  21137295.372    21137295.372    21137297.776
        41.000          41.000
   4689032.315 2   3654391.824 1  25033735.544    25033735.544    25033744.588
        16.000          16.000
 -14010324.792 3 -10917132.359 2  20827521.058    20827521.058    20827523.806
        39.000          39.000
   3335308.539 2   2598920.950 1  25200964.033    25200964.033    25200971.217
        13.000          12.000
  -2971244.210 2  -2315248.604 1  24561549.711    24561549.711    24561555.034
        17.000          17.000
   -403793.064 3   -314077.065 2  24162123.104    24162123.104    24162128.604
        35.000          33.000
 -19674861.683 3 -15302663.995 2  20401706.272    20401706.272    20401709.996
        49.000          49.000
  -2401186.453 3  -1867589.385 2  22937214.403    22937214.403    22937222.023
        39.000          33.000
  -4883700.069 3  -3798432.158 2  23518335.503    23518335.503    23518338.654
        38.000          41.000
 15  3 18  0 23 30.0000000  0 12G30G24G13G05G29G15G20G28R21R07R23R08
  -6901430.906 2  -5377736.856 2  24308225.424    24308225.424    24308233.495
        22.000          22.000
  -4794278.146 2  -3735799.407 2  23058110.479    23058110.479    23058115.687
        28.000          28.000
 -11526618.240 3  -8981778.232 2  20662133.439    20662133.439    20662136.015
        40.000          40.000
 -19233750.892 3 -14987339.148 2  21145343.943    21145343.943    21145347.062
        40.000          40.000
   4762457.788 2   3711606.373 1  25047708.943    25047708.943    25047714.438
        15.000          15.000
 -14037494.072 3 -10938303.214 2  20822350.774    20822350.774    20822353.435
        39.000          40.000
   3429647.607 2   2672431.399 1  25218915.640    25218915.640    25218925.599
        13.000          13.000
  -2999218.897 2  -2337047.016 1  24556227.272    24556227.272    24556234.227
        15.000          15.000
   -286780.002 3   -223067.092 2  24183989.919    24183989.919    24183996.622
        35.000          34.000
 -19716766.405 3 -15335256.561 2  20393878.114    20393878.114    20393881.724
        49.000          49.000
  -2418579.717 3  -1881117.492 2  22933964.114    22933964.114    22933972.078
        40.000          34.000
  -4967395.392 3  -3863528.485 2  23502703.952    23502703.952    23502707.676
        39.000          39.000
 15  3 18  0 24  0.0000000  0 12G30G24G13G05G29G15G20G28R21R07R23R08
  -6805624.213 2  -5303082.304 2  24326458.556    24326458.556    24326465.510
        23.000          23.000
  -4900589.435 2  -3818639.320 2  23037880.465    23037880.465    23037887.248
        28.000          28.000
 -11491534.987 3  -8954440.642 2  20668809.674    20668809.674    20668812.021
        40.000          40.000
 -19191114.801 3 -14954116.254 2  21153458.165    21153458.165    21153460.369
        40.000          40.000
   4835891.627 2   3768827.498 1  25061683.212    25061683.212    25061686.131
        17.000          17.000
 -14064372.129 3 -10959247.153 2  20817236.179    20817236.179    20817238.840
        40.000          40.000
   3524090.561 2   2746022.920 1  25236887.909    25236887.909    25236900.386
        14.000          14.000
  -3026816.194 2  -2358551.361 1  24550976.555    24550976.555    24550979.674
        15.000          16.000
   -169886.358 2   -132150.036 2  24205834.039    24205834.039    24205841.659
        34.000          35.000
 -19758501.158 3 -15367716.924 2  20386081.931    20386081.931    20386084.681
        50.000          48.000
  -2435231.766 3  -1894069.087 2  22930851.977    22930851.977    22930859.024
        40.000          34.000
  -5051147.401 3  -3928668.981 2  23487063.677    23487063.677    23487068.088
        37.000          38.000
 15  3 18  0 24 30.0000000  0 12G30G24G13G05G29G15G20G28R21R07R23R08
  -6709576.713 2  -5228240.112 2  24344736.798    24344736.798    24344743.838
        22.000          22.000
  -5006679.700 2  -3901307.002 2  23017692.129    23017692.129    23017698.282
        29.000          29.000
 -11456183.185 3  -8926893.802 2  20675536.683    20675536.683    20675539.230
        39.000          39.000
 -19148138.313 3 -14920628.100 2  21161635.787    21161635.787    21161638.992
        40.000          40.000
   4909335.571 2   3826056.495 1  25075658.175    25075658.175    25075662.153
        18.000          18.000
 -14090955.510 3 -10979961.477 2  20812177.522    20812177.522    20812180.270
        39.000          40.000
   3618640.845 2   2819698.069 1  25254881.639    25254881.639    25254891.684
        13.000          13.000
  -3054029.605 2  -2379756.545 1  24545797.518    24545797.518    24545801.096
        15.000          14.000
    -53111.565 2    -41325.366 2  24227657.501    24227657.501    24227664.662
        34.000          32.000
 -19800060.299 3 -15400040.713 2  20378317.407    20378317.407    20378321.589
        49.000          49.000
  -2451138.689 3  -1906441.166 2  22927877.436    22927877.436    22927884.942
        39.000          33.000
  -5134951.113 3  -3993849.603 2  23471415.371    23471415.371    23471419.611
        39.000          40.000
 15  3 18  0 25  0.0000000  0 12G30G24G13G05G29G15G20G28R21R07R23R08
  -6613299.918 2  -5153219.263 2  24363056.107    24363056.107    24363064.034
        23.000          23.000
  -5112555.991 2  -3983807.973 2  22997545.074    22997545.074    22997550.798
        28.000          28.000
 -11420573.319 3  -8899145.865 2  20682312.920    20682312.920    20682315.839
        40.000          40.000
 -19104830.112 3 -14886881.478 2  21169876.826    21169876.826    21169879.860
        40.000          40.000
   4982777.639 2   3883284.006 1  25089635.361    25089635.361    25089639.454
        17.000          17.000
 -14117253.006 3 -11000453.040 2  20807173.445    20807173.445    20807175.821
        39.000          40.000
   3713288.655 2   2893449.158 1  25272892.698    25272892.698    25272904.632
        15.000          15.000
  -3080866.243 2  -2400668.167 1  24540690.001    24540690.001    24540697.585
        17.000          17.000
     63531.384 3     49396.740 2  24249453.658    24249453.658    24249461.793
        35.000          33.000
 -19841451.920 3 -15432234.202 2  20370586.152    20370586.152    20370589.590
        50.000          49.000
  -2466309.205 3  -1918240.462 2  22925041.343    22925041.343    22925048.333
        39.000          33.000
  -5218815.413 3  -4059077.383 2  23455750.778    23455750.778    23455755.877
        37.000          37.000
 15  3 18  0 25 30.0000000  0 12G30G24G13G05G29G15G20G28R21R07R23R08
  -6516801.432 2  -5078025.656 2  24381420.739    24381420.739    24381429.324
        22.000          23.000
  -5218220.616 2  -4066144.025 2  22977437.494    22977437.494    22977443.304
        29.000          30.000
 -11384711.582 3  -8871201.665 2  20689137.515    20689137.515    20689140.319
        40.000          40.000
 -19061194.808 3 -14852879.965 2  21178180.513    21178180.513    21178183.489
        40.000          40.000
   5056209.831 2   3940503.752 1  25103609.639    25103609.639    25103613.016
        16.000          16.000
 -14143270.333 3 -11020726.273 2  20802222.272    20802222.272    20802225.020
        40.000          40.000
   3808028.285 2   2967271.790 1  25290919.297    25290919.297    25290931.889
        15.000          15.000
  -3107329.347 2  -2421288.711 1  24535654.328    24535654.328    24535662.084
        15.000          15.000
    180033.720 2    140009.450 2  24271222.806    24271222.806    24271233.921
        32.000          34.000
 -19882679.236 3 -15464299.893 2  20362883.759    20362883.759    20362887.597
        49.000          49.000
  -2480748.146 3  -1929470.742 2  22922342.508    22922342.508    22922350.816
        41.000          33.000
  -5302744.948 3  -4124355.901 2  23440080.856    23440080.856    23440083.376
        38.000          38.000
 15  3 18  0 26  0.0000000  0 12G30G24G13G05G29G15G20G28R21R07R23R08
  -6420080.222 2  -5002658.523 2  24399824.116    24399824.116    24399832.387
        22.000          22.000
  -5323667.584 2  -4148310.443 2  22957371.098    22957371.098    22957376.192
        29.000          30.000
 -11348595.725 3  -8843059.449 2  20696010.342    20696010.342    20696012.746
        40.000          40.000
 -19017228.450 3 -14818620.487 2  21186547.148    21186547.148    21186550.268
        40.000          40.000
   5129632.824 2   3997716.438 1  25117581.449    25117581.449    25117586.887
        16.000          16.000
 -14169004.143 3 -11040778.584 2  20797325.429    20797325.429    20797328.119
        39.000          39.000
   3902862.234 2   3041167.941 1  25308965.260    25308965.260    25308972.272
        13.000          13.000
  -3133413.545 2  -2441614.041 1  24530690.802    24530690.802    24530698.214
        17.000          17.000
    296395.514 2    230512.819 2  24292971.047    24292971.047    24292979.527
        33.000          35.000
 -19923737.855 3 -15496234.380 2  20355213.933    20355213.933    20355217.829
        49.000          49.000
  -2494452.178 3  -1940129.444 2  22919780.306    22919780.306    22919788.327
        40.000          33.000
  -5386735.494 3  -4189681.842 2  23424395.166    23424395.166    23424400.207
        39.000          39.000
 15  3 18  0 26 30.0000000  0 12G30G24G13G05G29G15G20G28R21R07R23R08
  -6323137.402 2  -4927118.705 2  24418272.581    24418272.581    24418279.793
        22.000          22.000
  -5428892.602 2  -4230303.920 2  22937347.123    22937347.123    22937353.161
        29.000          30.000
 -11312225.545 3  -8814719.073 2  20702931.452    20702931.452    20702933.541
        40.000          40.000
 -18972929.761 3 -14784102.053 2  21194977.285    21194977.285    21194979.717
        40.000          40.000
   5203045.070 2   4054920.767 1  25131551.051    25131551.051    25131557.318
        15.000          15.000
 -14194453.462 3 -11060609.235 2  20792482.439    20792482.439    20792485.015
        39.000          39.000
   3997791.240 1   3115138.097 1  25327034.932    25327034.932    25327047.839
        11.000          11.000
  -3159115.796 2  -2461641.741 1  24525799.064    24525799.064    24525804.215
        16.000          16.000
    412614.113 2    320904.844 2  24314690.794    24314690.794    24314696.638
        34.000          34.000
 -19964624.108 3 -15528034.802 2  20347575.361    20347575.361    20347580.059
        49.000          49.000
  -2507419.390 3  -1950215.061 2  22917357.251    22917357.251    22917365.387
        41.000          34.000
  -5470785.253 3  -4255053.840 2  23408700.108    23408700.108    23408701.426
        37.000          38.000
 15  3 18  0 27  0.0000000  0 12G30G24G13G05G29G15G20G28R21R07R23R08
  -6225975.123 2  -4851407.847 2  24436761.060    24436761.060    24436768.787
        21.000          21.000
  -5533893.142 2  -4312122.497 2  22917367.045    22917367.045    22917372.855
        31.000          31.000
 -11275602.104 3  -8786181.343 2  20709900.544    20709900.544    20709903.176
        40.000          40.000
 -18928298.107 3 -14749324.166 2  21203470.079    21203470.079    21203472.597
        40.000          40.000
   5276444.883 2   4112115.378 1  25145516.564    25145516.564    25145523.318
        16.000          16.000
 -14219618.316 3 -11080218.214 2  20787693.850    20787693.850    20787696.397
        39.000          39.000
   4092814.975 1   3189182.155 1  25345116.900    25345116.900    25345123.168
         9.000          10.000
  -3184433.842 2  -2481370.050 1  24520982.269    24520982.269    24520986.619
        16.000          16.000
    528686.786 2    411183.367 2  24336380.474    24336380.474    24336389.010
        31.000          32.000
 -20005336.562 3 -15559700.040 2  20339970.403    20339970.403    20339973.898
        49.000          49.000
  -2519649.332 3  -1959727.286 2  22915069.455    22915069.455    22915078.622
        40.000          34.000
  -5554893.587 3  -4320471.405 2  23392994.811    23392994.811    23392994.753
        39.000          37.000
 15  3 18  0 27 30.0000000  0 12G30G24G13G05G29G15G20G28R21R07R23R08
  -6128596.431 2  -4775528.420 2  24455293.787    24455293.787    24455298.251
        22.000          22.000
  -5638667.221 2  -4393764.607 2  22897428.406    22897428.406    22897435.074
        29.000          29.000
 -11238727.002 3  -8757447.515 2  20716917.462    20716917.462    20716919.838
        40.000          40.000
 -18883333.911 3 -14714287.145 2  21212026.938    21212026.938    21212029.314
        41.000          41.000
   5349828.701 2   4169297.482 1  25159484.583    25159484.583    25159487.645
        17.000          17.000
 -14244499.851 3 -11099606.420 2  20782958.954    20782958.954    20782961.644
        39.000          39.000
   4187931.852 1                  25363216.526    25363216.526
         7.000
  -3209366.107 2  -2500797.663 1  24516237.057    24516237.057    24516241.522
        17.000          17.000
    644609.044 2    501344.888 2  24358044.447    24358044.447    24358053.785
        32.000          33.000
 -20045874.525 3 -15591229.576 2  20332396.876    20332396.876    20332401.746
        49.000          49.000
  -2531142.769 3  -1968666.640 2  22912921.304    22912921.304    22912928.466
        40.000          33.000
  -5639060.473 3  -4385934.501 2  23377276.281    23377276.281    23377279.776
        39.000          35.000
 15  3 18  0 28  0.0000000  0 13G30G21G24G13G05G29G15G20G28R21R07R23
                                R08
  -6031001.448 2  -4699480.409 2  24473863.427    24473863.427    24473869.208
        20.000          20.000
   -272456.816 2   -212304.746 2  23416211.417    23416211.417    23416214.250
        25.000          25.000
  -5743210.157 2  -4475226.593 2  22877535.572    22877535.572    22877540.495
        30.000          30.000
 -11201599.228 3  -8728516.783 2  20723982.753    20723982.753    20723985.243
        40.000          40.000
 -18838034.896 3 -14678989.248 2  21220646.503    21220646.503    21220649.594
        41.000          41.000
   5423195.677 2   4226466.479 1  25173442.887    25173442.887    25173449.755
        15.000          15.000
 -14269095.762 3 -11118772.065 2  20778278.193    20778278.193    20778281.084
        39.000          39.000
   4283143.703 1                  25381334.748    25381334.748
         7.000
  -3233908.263 2  -2519921.419 1  24511566.871    24511566.871    24511572.337
        15.000          15.000
    760379.645 2    591388.386 2  24379676.703    24379676.703    24379686.787
        31.000          35.000
 -20086233.846 3 -15622620.149 2  20324858.461    20324858.461    20324861.383
        49.000          49.000
  -2541896.936 3  -1977030.987 2  22910911.155    22910911.155    22910918.717
        40.000          34.000
  -5723283.257 3  -4451441.055 2  23361547.124    23361547.124    23361551.421
        38.000          38.000
 15  3 18  0 28 30.0000000  0 13G30G21G24G13G05G29G15G20G28R21R07R23
                                R08
  -5933186.250 2  -4623260.820 2  24492477.377    24492477.377    24492483.816
        22.000          22.000
   -338295.830 2   -263607.871 2  23403682.500    23403682.500    23403684.417
        25.000          26.000
  -5847512.708 2  -4556501.278 2  22857686.157    22857686.157    22857692.510
        31.000          31.000
 -11164213.758 3  -8699385.265 2  20731096.887    20731096.887    20731099.348
        40.000          40.000
 -18792393.911 3 -14643424.874 2  21229331.720    21229331.720    21229334.983
        41.000          41.000
   5496549.697 2   4283625.414 1  25187403.703    25187403.703    25187408.253
        16.000          16.000
 -14293400.069 3 -11137710.490 2  20773653.337    20773653.337    20773656.056
        39.000          39.000
   4378456.472 1                  25399472.141    25399472.141
         7.000
  -3258052.194 2  -2538734.794 1  24506974.250    24506974.250    24506974.336
        16.000          16.000
    876002.014 2    681316.565 2  24401283.759    24401283.759    24401292.181
        31.000          34.000
 -20126406.357 3 -15653865.444 2  20317352.545    20317352.545    20317357.759
        49.000          49.000
  -2551905.942 3  -1984815.767 2  22909038.784    22909038.784    22909048.811
        40.000          34.000
  -5807554.476 3  -4516985.299 2  23345810.449    23345810.449    23345814.344
        38.000          38.000
 15  3 18  0 29  0.0000000  0 13G30G21G24G13G05G29G15G20G28R21R07R23
                                R08
  -5835168.825 2  -4546883.588 2  24511129.931    24511129.931    24511136.084
        22.000          22.000
   -403760.726 2   -314619.478 2  23391225.008    23391225.008    23391226.467
        26.000          26.000
  -5951587.697 2  -4637598.618 2  22837882.098    22837882.098    22837888.137
        31.000          31.000
 -11126587.071 3  -8670065.783 2  20738257.040    20738257.040    20738259.472
        39.000          39.000
 -18746426.164 3 -14607605.879 2  21238079.326    21238079.326    21238082.446
        41.000          41.000
   5569872.646 2   4340760.059 1  25201355.890    25201355.890    25201362.673
        15.000          15.000
 -14317428.877 3 -11156434.239 2  20769080.757    20769080.757    20769083.247
        39.000          39.000
                                  25417639.430

  -3281811.629 2  -2557248.602 1  24502452.923    24502452.923    24502456.787
        17.000          17.000
    991456.430 2    771114.159 2  24422861.539    24422861.539    24422869.331
        31.000          33.000
 -20166406.471 3 -15684976.631 2  20309881.033    20309881.033    20309885.100
        49.000          49.000
  -2561185.170 3  -1992032.954 2  22907304.793    22907304.793    22907311.668
        40.000          33.000
  -5891889.655 3  -4582579.277 2  23330061.268    23330061.268    23330064.420
        39.000          39.000
 15  3 18  0 29 30.0000000  0 13G30G21G24G13G05G29G15G20G28R21R07R23
                                R08
  -5736945.953 2  -4470346.326 2  24529820.354    24529820.354    24529829.999
        21.000          21.000
   -468843.852 2   -365333.594 2  23378839.006    23378839.006    23378840.695
        26.000          25.000
  -6055427.704 2  -4718512.875 2  22818121.078    22818121.078    22818128.233
        30.000          30.000
 -11088714.663 3  -8640554.833 2  20745463.781    20745463.781    20745466.586
        40.000          40.000
 -18700126.471 3 -14571528.226 2  21246889.907    21246889.907    21246892.454
        40.000          40.000
   5643167.262 2   4397872.705 1  25215303.886    25215303.886    25215309.953
        15.000          15.000
 -14341176.550 3 -11174938.918 2  20764561.907    20764561.907    20764564.396
        39.000          39.000
                                  25435794.552

  -3305179.115 2  -2575456.988 1  24498003.520    24498003.520    24498010.045
        18.000          18.000
   1106745.252 2    860782.916 2  24444405.186    24444405.186    24444414.926
        32.000          34.000
 -20206226.701 3 -15715947.925 2  20302441.572    20302441.572    20302445.697
        48.000          49.000
  -2569729.266 3  -1998678.381 2  22905708.602    22905708.602    22905715.363
        40.000          34.000
  -5976282.473 3  -4648218.084 2  23314301.035    23314301.035    23314303.900
        39.000          38.000
 15  3 18  0 30  0.0000000  0 13G30G21G24G13G05G29G15G20G28R21R07R23
                                R08
  -5638517.576 2  -4393648.927 2  24548552.815    24548552.815    24548559.998
        21.000          22.000
   -533540.609 2   -415746.657 2  23366527.834    23366527.834    23366531.182
        26.000          26.000
  -6159027.096 2  -4799239.635 2  22798407.814    22798407.814    22798413.853
        31.000          31.000
 -11050595.486 3  -8610851.599 2  20752718.011    20752718.011    20752720.072
        40.000          40.000
 -18653492.004 3 -14535189.700 2  21255763.949    21255763.949    21255766.582
        40.000          40.000
   5716433.558 2   4454963.265 1  25229243.643    25229243.643    25229250.397
        16.000          16.000
 -14364641.001 3 -11193222.912 2  20760096.997    20760096.997    20760099.172
        39.000          39.000
                                  25453987.871

  -3328150.449 2  -2593356.692 1  24493634.805    24493634.805    24493637.266
        18.000          17.000
   1221867.661 2    950322.225 2  24465917.647    24465917.647    24465929.277
        31.000          33.000
 -20245863.239 3 -15746776.343 2  20295037.258    20295037.258    20295042.128
        48.000          49.000
  -2577535.647 3  -2004750.032 2  22904248.535    22904248.535    22904255.582
        40.000          33.000
  -6060729.626 3  -4713899.158 2  23298530.723    23298530.723    23298533.244
        38.000          38.000
 15  3 18  0 30 30.0000000  0 13G30G21G24G13G05G29G15G20G28R21R07R23
                                R08
  -5539888.699 2  -4316795.274 2  24567320.876    24567320.876    24567325.856
        22.000          21.000
   -597851.435 2   -465858.986 2  23354289.784    23354289.784    23354291.473
        26.000          26.000
  -6262386.145 2  -4879779.124 2  22778738.840    22778738.840    22778744.793
        30.000          30.000
 -11012233.039 3  -8580958.793 2  20760018.387    20760018.387    20760020.189
        40.000          40.000
 -18606525.010 3 -14498592.076 2  21264701.399    21264701.399    21264704.490
        40.000          40.000
   5789666.219 2   4512027.610 1  25243181.520    25243181.520    25243188.903
        15.000          15.000
 -14387825.117 3 -11211288.453 2  20755684.955    20755684.955    20755687.388
        39.000          39.000
                                  25472189.657

  -3350726.316 2  -2610948.248 1  24489338.674    24489338.674    24489342.108
        18.000          18.000
   1336817.552 2   1039727.375 2  24487401.011    24487401.011    24487407.599
        33.000          34.000
 -20285317.076 3 -15777462.655 2  20287666.911    20287666.911    20287671.552
        48.000          49.000
  -2584607.256 3  -2010250.169 2  22902927.570    22902927.570    22902933.929
        40.000          34.000
  -6145233.403 3  -4779624.288 2  23282750.075    23282750.075    23282754.315
        39.000          39.000
 15  3 18  0 31  0.0000000  0 12G30G21G24G13G05G29G15G28R21R07R23R08
  -5441057.198 2  -4239783.714 2  24586128.367    24586128.367    24586131.601
        21.000          21.000
   -661769.350 2   -515665.135 2  23342126.808    23342126.808    23342129.127
        26.000          26.000
  -6365497.964 2  -4960125.952 2  22759116.995    22759116.995    22759122.947
        30.000          30.000
 -10973624.051 3  -8550873.873 2  20767365.568    20767365.568    20767367.428
        40.000          40.000
 -18559220.868 3 -14461731.728 2  21273703.199    21273703.199    21273705.889
        40.000          40.000
   5862867.044 2   4569067.131 1  25257110.310    25257110.310    25257117.350
        16.000          16.000
 -14410724.933 3 -11229132.471 2  20751327.326    20751327.326    20751329.844
        39.000          39.000
  -3372900.314 2  -2628226.611 1  24485117.755    24485117.755    24485122.964
        17.000          17.000
   1451596.128 2   1128999.245 2  24508850.927    24508850.927    24508860.094
        31.000          33.000
 -20324581.431 3 -15808001.596 2  20280333.851    20280333.851    20280336.658
        49.000          49.000
  -2590939.532 3  -2015175.301 2  22901742.394    22901742.394    22901750.816
        40.000          34.000
  -6229788.361 3  -4845389.222 2  23266960.927    23266960.927    23266965.109
        38.000          39.000
 15  3 18  0 31 30.0000000  0 12G30G21G24G13G05G29G15G28R21R07R23R08
  -5342035.077 2  -4162623.618 2  24604971.639    24604971.639    24604976.876
        21.000          21.000
   -725302.035 2   -565171.124 2  23330036.719    23330036.719    23330039.867
        26.000          26.000
  -6468368.957 2  -5040285.133 2  22739541.827    22739541.827    22739547.579
        31.000          31.000
 -10934779.409 3  -8520605.347 2  20774756.838    20774756.838    20774759.156
        40.000          40.000
 -18511588.950 3 -14424615.983 2  21282766.823    21282766.823    21282770.057
        39.000          39.000
   5936023.525 2   4626072.163 1  25271031.052    25271031.052    25271039.294
        14.000          15.000
 -14433350.126 3 -11246762.497 2  20747021.834    20747021.834    20747024.353
        40.000          39.000
  -3394680.084 2  -2645197.808 1  24480974.882    24480974.882    24480980.177
        18.000          18.000
   1566190.366 2   1218127.686 2  24530265.488    24530265.488    24530275.628
        33.000          34.000
 -20363664.834 3 -15838399.801 2  20273031.294    20273031.294    20273035.992
        49.000          49.000
  -2596542.275 3  -2019532.995 2  22900694.554    22900694.554    22900702.976
        40.000          32.000
  -6314403.877 3  -4911201.242 2  23251161.474    23251161.474    23251162.964
        39.000          39.000
 15  3 18  0 32  0.0000000  0 12G30G21G24G13G05G29G15G28R21R07R23R08
  -5242817.689 2  -4085311.376 2  24623851.136    24623851.136    24623856.831
        21.000          21.000
   -788440.229 2   -614369.717 2  23318021.864    23318021.864    23318024.125
        25.000          25.000
  -6570990.073 2  -5120249.616 2  22720013.927    22720013.927    22720020.137
        30.000          30.000
 -10895692.996 3  -8490148.417 2  20782194.652    20782194.652    20782197.457
        40.000          40.000
 -18463621.744 3 -14387238.956 2  21291895.201    21291895.201    21291898.063
        39.000          39.000
   6009140.815 1   4683046.630 1  25284944.777    25284944.777    25284949.556
        12.000          12.000
 -14455693.856 3 -11264173.193 2  20742770.011    20742770.011    20742772.644
        40.000          40.000
  -3416056.906 2  -2661855.005 1  24476905.189    24476905.189    24476909.110
        18.000          17.000
   1680604.116 2   1307115.762 2  24551647.173    24551647.173    24551656.397
        33.000          33.000
 -20402558.346 3 -15868650.322 2  20265766.559    20265766.559    20265769.481
        49.000          48.000
  -2601409.016 3  -2023318.263 2  22899784.306    22899784.306    22899793.931
        40.000          34.000
  -6399071.617 3  -4977053.892 2  23235347.052    23235347.052    23235351.234
        39.000          39.000
 15  3 18  0 32 30.0000000  0 12G30G21G24G13G05G29G15G28R21R07R23R08
  -5143404.889 2  -4007846.870 2  24642769.449    24642769.449    24642775.030
        21.000          21.000
   -851179.466 2   -663257.430 2  23306083.196    23306083.196    23306084.283
        26.000          26.000
  -6673355.934 2  -5200015.178 2  22700533.147    22700533.147    22700539.099
        30.000          30.000
 -10856363.403 3  -8459501.980 2  20789678.839    20789678.839    20789681.271
        40.000          40.000
 -18415316.902 3 -14349598.848 2  21301087.611    21301087.611    21301090.130
        40.000          40.000
   6082218.351 2   4739990.018 1  25298852.498    25298852.498    25298856.819
        19.000          19.000
 -14477754.097 3 -11281362.997 2  20738571.821    20738571.821    20738574.969
        40.000          40.000
  -3437026.843 2  -2678195.198 1  24472915.156    24472915.156    24472920.164
        18.000          18.000
   1794836.916 2   1395963.121 2  24572992.241    24572992.241    24573002.382
        32.000          32.000
 -20441257.987 3 -15898750.030 2  20258535.660    20258535.660    20258540.301
        49.000          49.000
  -2605537.097 3  -2026529.001 2  22899014.291    22899014.291    22899022.484
        40.000          33.000
  -6483788.740 3  -5042944.929 2  23219529.777    23219529.777    23219532.870
        40.000          40.000
 15  3 18  0 33  0.0000000  0 12G30G21G24G13G05G29G15G28R21R07R23R08
  -5043806.616 2  -3930237.842 2  24661721.057    24661721.057    24661724.806
        21.000          21.000
   -913525.233 2   -711838.542 2  23294218.317    23294218.317    23294220.607
        26.000          26.000
  -6775471.583 2  -5279585.796 2  22681101.769    22681101.769    22681108.981
        30.000          30.000
 -10816799.335 3  -8428672.849 2  20797208.191    20797208.191    20797210.137
        39.000          40.000
 -18366681.387 3 -14311701.069 2  21310342.761    21310342.761    21310345.021
        39.000          39.000
   6155245.764 2   4796894.437 1  25312748.687    25312748.687    25312756.386
        18.000          17.000
 -14499538.728 3 -11298338.032 2  20734426.443    20734426.443    20734429.363
        40.000          40.000
  -3457595.355 2  -2694222.566 1  24468999.680    24468999.680    24469006.577
        18.000          17.000
   1908877.889 2   1484661.264 2  24594302.393    24594302.393    24594312.705
        27.000          27.000
 -20479769.527 3 -15928703.455 2  20251342.036    20251342.036    20251346.677
        49.000          49.000
  -2608935.049 3  -2029171.834 2  22898379.139    22898379.139    22898386.014
        40.000          32.000
  -6568562.148 3  -5108879.745 2  23203697.811    23203697.811    23203699.702
        40.000          39.000
 15  3 18  0 33 30.0000000  0 12G30G21G24G13G05G29G15G28R21R07R23R08
  -4944024.309 2  -3852485.348 1  24680710.353    24680710.353    24680715.361
        19.000          19.000
   -975474.266 2   -760110.494 2  23282430.464    23282430.464    23282432.782
        27.000          27.000
  -6877333.791 2  -5358958.904 2  22661718.062    22661718.062    22661723.786
        30.000          30.000
 -10777000.992 3  -8397661.173 2  20804781.600    20804781.600    20804783.718
        40.000          40.000
 -18317714.128 3 -14273544.798 2  21319660.296    21319660.296    21319663.644
        39.000          39.000
   6228221.721 2   4853758.716 1  25326635.611    25326635.611    25326642.165
        18.000          18.000
 -14521046.970 3 -11315097.697 2  20730333.695    20730333.695    20730336.614
        40.000          40.000
  -3477759.705 2  -2709934.975 1  24465162.414    24465162.414    24465168.768
        18.000          18.000
   2022724.570 2   1573208.232 2  24615579.866    24615579.866    24615591.496
        31.000          32.000
 -20518090.530 3 -15958508.684 2  20244184.163    20244184.163    20244187.543
        49.000          49.000
  -2611601.587 3  -2031245.837 2  22897880.385    22897880.385    22897888.750
        41.000          34.000
  -6653390.287 3  -5174857.165 2  23187856.491    23187856.491    23187860.674
        39.000          40.000
 15  3 18  0 34  0.0000000  0 12G30G21G24G13G05G29G15G28R21R07R23R08
  -4844052.383 2  -3774585.136 2  24699732.448    24699732.448    24699739.603
        21.000          21.000
  -1037016.784 2   -808065.690 2  23270719.126    23270719.126    23270721.416
        26.000          26.000
  -6978932.036 2  -5438126.344 2  22642384.354    22642384.354    22642391.108
        30.000          30.000
 -10736961.524 3  -8366461.592 2  20812400.273    20812400.273    20812402.533
        39.000          39.000
 -18268407.746 3 -14235124.280 2  21329042.695    21329042.695    21329046.130
        39.000          40.000
   6301151.770 2   4910587.299 1  25340512.210    25340512.210    25340519.393
        18.000          18.000
 -14542271.484 3 -11331636.279 2  20726295.000    20726295.000    20726297.690
        40.000          40.000
  -3497510.251 2  -2725324.982 1  24461404.571    24461404.571    24461410.753
        18.000          18.000
   2136381.237 2   1661607.429 2  24636823.518    24636823.518    24636834.518
        26.000          25.000
 -20556210.923 3 -15988157.862 2  20237061.989    20237061.989    20237066.057
        49.000          49.000
  -2613529.591 3  -2032745.394 2  22897521.048    22897521.048    22897525.058
        41.000          33.000
  -6738264.117 3  -5240870.110 2  23172003.585    23172003.585    23172009.085
        39.000          39.000
 15  3 18  0 34 30.0000000  0 12G30G21G24G13G05G29G15G28R21R07R23R08
  -4743902.111 2  -3696545.980 2  24718790.531    24718790.531    24718798.773
        20.000          21.000
  -1098159.569 2   -855709.402 2  23259084.054    23259084.054    23259087.803
        26.000          26.000
  -7080272.256 2  -5517092.695 2  22623100.098    22623100.098    22623106.194
        31.000          31.000
 -10696691.048 3  -8335082.009 2  20820063.710    20820063.710    20820065.885
        39.000          39.000
 -18218770.719 3 -14196446.112 2  21338488.792    21338488.792    21338491.711
        40.000          40.000
   6374023.842 2   4967370.623 1  25354379.872    25354379.872    25354386.082
        15.000          16.000
 -14563221.084 3 -11347960.647 2  20722308.425    20722308.425    20722311.115
        40.000          41.000
  -3516854.349 2  -2740398.270 1  24457725.383    24457725.383    24457731.536
        18.000          17.000
   2249836.426 2   1749849.927 2  24658019.031    24658019.031    24658029.573
        28.000          29.000
 -20594138.108 3 -16017656.786 2  20229977.330    20229977.330    20229981.627
        49.000          49.000
  -2614728.257 3  -2033677.715 2  22897294.676    22897294.676    22897302.754
        40.000          31.000
  -6823192.123 3  -5306925.154 2  23156146.895    23156146.895    23156150.561
        41.000          35.000
 15  3 18  0 35  0.0000000  0 11G30G21G24G13G05G29G15G28R07R23R08
  -4643570.138 2  -3618365.239 2  24737884.459    24737884.459    24737889.982
        21.000          20.000
  -1158894.583 2   -903035.381 2  23247526.438    23247526.438    23247528.899
        26.000          26.000
  -7181346.583 2  -5595851.888 2  22603865.636    22603865.636    22603871.531
        30.000          30.000
 -10656184.844 3  -8303518.730 2  20827772.245    20827772.245    20827774.019
        39.000          39.000
 -18168796.715 3 -14157505.359 2  21347998.519    21347998.519    21348001.724
        40.000          40.000
   6446841.279 2   5024111.432 1  25368240.160    25368240.160    25368245.140
        14.000          14.000
 -14583890.253 3 -11364066.494 2  20718375.270    20718375.270    20718377.788
        40.000          40.000
  -3535784.352 2  -2755148.891 1  24454122.488    24454122.488    24454126.008
        17.000          17.000
 -20631864.632 3 -16046999.631 2  20222929.093    20222929.093    20222933.218
        48.000          49.000
  -2615192.483 3  -2034038.783 2  22897208.835    22897208.835    22897216.398
        41.000          33.000
  -6908167.808 3  -5373017.329 2  23140278.487    23140278.487    23140282.440
        41.000          40.000
 15  3 18  0 35 30.0000000  0 11G30G21G24G13G05G29G15G28R07R23R08
  -4543064.468 2  -3540049.083 2  24757008.835    24757008.835    24757014.072
        21.000          21.000
  -1219225.409 2   -950046.409 2  23236046.067    23236046.067    23236048.242
        26.000          26.000
  -7282157.914 2  -5674406.135 2  22584683.026    22584683.026    22584688.664
        31.000          31.000
 -10615449.684 3  -8271777.067 2  20835524.090    20835524.090    20835525.721
        39.000          39.000
 -18118491.103 3 -14118306.220 2  21357571.806    21357571.806    21357574.410
        40.000          40.000
   6519596.264 1   5080803.568 1  25382081.049    25382081.049    25382087.603
        11.000          12.000
 -14604285.125 3 -11379958.598 2  20714494.016    20714494.016    20714496.849
        40.000          40.000
  -3554304.210 2  -2769579.884 1  24450598.049    24450598.049    24450603.143
        17.000          17.000
 -20669394.228 3 -16076189.308 2  20215919.001    20215919.001    20215922.668
        49.000          49.000
  -2614928.107 3  -2033833.126 2  22897259.580    22897259.580    22897265.825
        41.000          32.000
  -6993195.955 3  -5439150.267 2  23124401.384    23124401.384    23124404.019
        40.000          40.000
 15  3 18  0 36  0.0000000  0 11G30G21G24G13G05G29G15G28R07R23R08
  -4442390.840 2  -3461602.082 2  24776166.976    24776166.976    24776173.930
        22.000          22.000
  -1279153.675 2   -996743.768 2  23224642.289    23224642.289    23224644.579
        26.000          26.000
  -7382707.607 2  -5752756.516 2  22565548.987    22565548.987    22565554.482
        31.000          31.000
 -10574490.031 3  -8239860.459 2  20843317.999    20843317.999    20843320.775
        39.000          39.000
 -18067857.920 3 -14078851.823 2  21367206.937    21367206.937    21367209.656
        40.000          40.000
   6592282.502 1   5137442.147 1  25395912.456    25395912.456    25395919.067
         9.000           9.000
 -14624409.575 3 -11395639.983 2  20710664.610    20710664.610    20710667.357
        40.000          40.000
  -3572415.928 2  -2783692.891 1  24447152.647    24447152.647    24447155.395
        17.000          17.000
 -20706729.001 3 -16105227.464 2  20208943.485    20208943.485    20208948.354
        49.000          49.000
  -2613939.505 3  -2033064.218 2  22897443.686    22897443.686    22897450.504
        41.000          34.000
  -7078279.355 3  -5505326.205 2  23108512.430    23108512.430    23108514.779
        42.000          39.000
 15  3 18  0 36 30.0000000  0 11G30G21G24G13G05G29G15G28R07R23R08
  -4341543.253 2  -3383019.576 1  24795359.350    24795359.350    24795366.963
        19.000          19.000
  -1338668.837 2  -1043119.206 2  23213317.510    23213317.510    23213319.713
        27.000          27.000
  -7482984.190 2  -5830894.074 2  22546465.796    22546465.796    22546472.120
        31.000          31.000
 -10533298.487 3  -8207763.163 2  20851156.106    20851156.106    20851158.567
        39.000          39.000
 -18016888.398 3 -14039135.346 2  21376905.490    21376905.490    21376909.125
        40.000          40.000
   6664905.855 1                  25409733.903    25409733.903
        10.000
 -14644255.311 3 -11411104.198 2  20706887.863    20706887.863    20706890.639
        40.000          40.000
  -3590109.156 2  -2797479.787 1  24443783.672    24443783.672    24443788.680
        17.000          17.000
 -20743858.580 3 -16134106.032 2  20202007.795    20202007.795    20202011.347
        49.000          49.000
  -2612218.578 3  -2031725.729 2  22897765.388    22897765.388    22897771.862
        41.000          34.000
  -7163408.661 3  -5571537.842 2  23092613.887    23092613.887    23092616.178
        41.000          39.000
 15  3 18  0 37  0.0000000  0 11G30G21G24G13G05G29G15G28R07R23R08
  -4240524.315 2  -3304303.520 2  24814580.704    24814580.704    24814586.800
        20.000          21.000
  -1397769.032 2  -1089171.296 2  23202070.432    23202070.432    23202072.264
        27.000          27.000
  -7582985.985 2  -5908817.505 2  22527436.887    22527436.887    22527442.525
        31.000          31.000
 -10491876.651 3  -8175486.420 2  20859039.116    20859039.116    20859041.291
        39.000          39.000
 -17965582.703 3 -13999156.910 2  21386669.358    21386669.358    21386672.134
        39.000          39.000
   6737463.372 1                  25423545.025    25423545.025
         7.000
 -14663823.267 3 -11426351.950 2  20703164.271    20703164.271    20703166.875
        40.000          40.000
  -3607382.932 2  -2810939.799 1  24440495.472    24440495.472    24440499.736
        17.000          17.000
 -20780781.311 3 -16162823.704 2  20195111.041    20195111.041    20195114.593
        49.000          49.000
  -2609766.379 3  -2029818.486 2  22898223.597    22898223.597    22898231.504
        40.000          34.000
  -7248583.528 3  -5637784.904 2  23076707.109    23076707.109    23076711.692
        40.000          39.000
 15  3 18  0 37 30.0000000  0 10G30G21G24G13G05G15G28R07R23R08
  -4139339.953 2  -3225458.548 2  24833835.243    24833835.243    24833843.256
        21.000          21.000
  -1456455.833 2  -1134901.268 2  23190903.668    23190903.668    23190904.784
        26.000          26.000
  -7682714.356 2  -5986527.910 2  22508458.974    22508458.974    22508465.013
        32.000          32.000
 -10450228.998 3  -8143033.719 2  20866964.746    20866964.746    20866966.520
        40.000          40.000
 -17913944.189 3 -13958919.128 2  21396495.402    21396495.402    21396498.550
        39.000          39.000
 -14683116.816 3 -11441385.882 2  20699493.076    20699493.076    20699495.480
        40.000          40.000
  -3624238.875 2  -2824074.292 1  24437288.942    24437288.942    24437295.124
        18.000          18.000
 -20817499.044 3 -16191381.946 2  20188251.016    20188251.016    20188255.657
        48.000          49.000
  -2606587.246 3  -2027345.848 2  22898817.431    22898817.431    22898825.795
        41.000          34.000
  -7333806.640 3  -5704069.542 2  23060793.342    23060793.342    23060796.551
        42.000          39.000
 15  3 18  0 38  0.0000000  0 10G30G21G24G13G05G15G28R07R23R08
  -4037990.611 2  -3146485.036 1  24853120.674    24853120.674    24853131.979
        19.000          19.000
  -1514725.489 2  -1180306.190 2  23179813.742    23179813.742    23179816.833
        27.000          27.000
  -7782163.996 2  -6064021.095 2  22489534.444    22489534.444    22489540.196
        32.000          32.000
 -10408354.973 3  -8110404.622 2  20874932.857    20874932.857    20874934.746
        39.000          39.000
 -17861970.706 3 -13918420.348 2  21406386.011    21406386.011    21406388.759
        39.000          39.000
 -14702134.728 3 -11456205.028 2  20695873.886    20695873.886    20695876.605
        40.000          40.000
  -3640673.760 2  -2836880.648 1  24434162.169    24434162.169    24434166.204
        17.000          17.000
 -20854008.222 3 -16219777.959 2  20181431.981    20181431.981    20181434.960
        49.000          49.000
  -2602680.035 3  -2024306.910 2  22899548.015    22899548.015    22899556.495
        40.000          34.000
  -7419075.179 3  -5770389.456 2  23044870.087    23044870.087    23044874.499
        41.000          40.000
 15  3 18  0 38 30.0000000  0 10G30G21G24G13G05G15G28R07R23R08
  -3936484.353 2  -3067389.261 1  24872436.010    24872436.010    24872446.570
        19.000          19.000
  -1572581.642 2  -1225388.900 2  23168804.427    23168804.427    23168807.375
        27.000          27.000
  -7881338.853 2  -6141300.187 2  22470661.573    22470661.573    22470667.640
        32.000          32.000
 -10366260.990 3  -8077604.123 2  20882942.474    20882942.474    20882945.021
        40.000          40.000
 -17809668.000 3 -13877665.021 2  21416338.459    21416338.459    21416341.636
        39.000          39.000
 -14720882.830 3 -11470813.941 2  20692306.280    20692306.280    20692308.798
        40.000          40.000
  -3656691.332 2  -2849361.837 1  24431115.140    24431115.140    24431118.174
        16.000          17.000
 -20890312.965 3 -16248014.981 2  20174649.011    20174649.011    20174653.194
        49.000          49.000
  -2598051.294 3  -2020706.769 2  22900413.171    22900413.171    22900421.364
        40.000          32.000
  -7504394.491 3  -5836748.896 2  23028937.998    23028937.998    23028939.316
        42.000          39.000
 15  3 18  0 39  0.0000000  0 10G30G21G24G13G05G15G28R07R23R08
  -3834815.982 2  -2988167.178 1  24891784.957    24891784.957    24891789.908
        20.000          19.000
  -1630015.033 2  -1270142.183 2  23157875.487    23157875.487    23157878.520
        26.000          26.000
  -7980228.342 2  -6218356.898 2  22451843.647    22451843.647    22451849.285
        32.000          32.000
 -10323941.138 3  -8044627.638 2  20890995.574    20890995.574    20890997.978
        39.000          39.000
 -17757028.343 3 -13836647.141 2  21426355.735    21426355.735    21426358.568
        39.000          39.000
 -14739353.957 3 -11485207.028 2  20688791.114    20688791.114    20688793.948
        40.000          40.000
  -3672282.698 2  -2861510.914 1  24428147.412    24428147.412    24428150.789
        16.000          16.000
 -20926403.522 3 -16276085.418 2  20167908.088    20167908.088    20167911.583
        49.000          49.000
  -2592694.181 3  -2016540.145 2  22901413.520    22901413.520    22901422.228
        39.000          34.000
  -7589755.765 3  -5903140.980 2  23012994.407    23012994.407    23012999.163
        40.000          39.000
 15  3 18  0 39 30.0000000  0 10G30G21G24G13G05G15G28R07R23R08
  -3732992.958 2  -2908824.579 2  24911161.130    24911161.130    24911169.888
        20.000          20.000
  -1687028.683 2  -1314568.395 2  23147025.431    23147025.431    23147029.409
        26.000          26.000
  -8078835.526 2  -6295193.644 2  22433079.217    22433079.217    22433085.627
        33.000          33.000
 -10281401.113 3  -8011479.578 2  20899091.255    20899091.255    20899093.315
        39.000          39.000
 -17704057.503 3 -13795371.195 2  21436435.255    21436435.255    21436438.317
        39.000          39.000
 -14757553.601 3 -11499388.558 2  20685328.009    20685328.009    20685330.642
        40.000          40.000
  -3687451.702 2  -2873330.875 1  24425260.747    24425260.747    24425266.357
        16.000          17.000
 -20962283.263 3 -16303991.878 2  20161204.991    20161204.991    20161208.371
        49.000          49.000
  -2586614.764 3  -2011811.712 2  22902551.203    22902551.203    22902559.396
        40.000          34.000
  -7675163.465 3  -5969569.128 2  22997050.032    22997050.032    22997050.662
        42.000          40.000
 15  3 18  0 40  0.0000000  0 10G30G21G24G13G05G15G28R07R23R08
  -3631017.739 2  -2829363.368 2  24930565.251    24930565.251    24930573.636
        21.000          21.000
  -1743620.674 2  -1358666.056 2  23136256.552    23136256.552    23136259.786
        26.000          26.000
  -8177158.072 2  -6371808.579 2  22414368.877    22414368.877    22414374.658
        33.000          33.000
 -10238641.999 3  -7978160.809 2  20907227.991    20907227.991    20907229.908
        39.000          39.000
 -17650755.108 3 -13753836.882 2  21446579.193    21446579.193    21446581.625
        39.000          39.000
 -14775482.362 3 -11513359.027 2  20681916.285    20681916.285    20681919.118
        40.000          40.000
  -3702196.694 2  -2884820.443 1  24422455.664    24422455.664    24422459.785
        17.000          17.000
 -20997950.826 3 -16331733.317 2  20154541.234    20154541.234    20154545.703
        49.000          49.000
  -2579814.010 3  -2006522.260 2  22903822.211    22903822.211    22903830.576
        39.000          34.000
  -7760616.715 3  -6036032.749 2  22981089.369    22981089.369    22981091.546
        41.000          38.000
 15  3 18  0 40 30.0000000  0 10G30G21G24G13G05G15G28R07R23R08
  -3528892.349 2  -2749785.132 1  24949999.445    24949999.445    24950009.032
        18.000          18.000
  -1799788.942 2  -1402433.538 2  23125569.153    23125569.153    23125571.843
        27.000          27.000
  -8275192.882 2  -6448199.315 2  22395713.756    22395713.756    22395719.766
        33.000          33.000
 -10195664.785 3  -7944672.091 2  20915406.209    20915406.209    20915408.241
        39.000          39.000
 -17597120.802 3 -13712043.930 2  21456785.718    21456785.718    21456787.979
        39.000          39.000
 -14793139.980 3 -11527118.204 2  20678556.083    20678556.083    20678558.802
        40.000          40.000
  -3716516.059 2  -2895978.380 1  24419728.863    24419728.863    24419733.670
        19.000          18.000
 -21033403.873 3 -16359307.897 2  20147919.769    20147919.769    20147923.608
        49.000          49.000
  -2572292.598 3  -2000672.268 2  22905229.155    22905229.155    22905235.629
        39.000          34.000
  -7846114.653 3  -6102531.105 2  22965123.223    22965123.223    22965125.629
        41.000          39.000
 15  3 18  0 41  0.0000000  0 10G30G21G24G13G05G15G28R07R23R08
  -3426617.519 2  -2670090.493 1  24969463.655    24969463.655    24969468.320
        19.000          19.000
  -1855529.636 2  -1445867.835 2  23114961.540    23114961.540    23114965.374
        26.000          26.000
  -8372936.223 2  -6524362.922 2  22377113.872    22377113.872    22377119.253
        33.000          33.000
 -10152469.128 3  -7911013.142 2  20923626.273    20923626.273    20923628.276
        39.000          40.000
 -17543152.827 3 -13669991.006 2  21467055.260    21467055.260    21467057.979
        39.000          40.000
 -14810525.431 3 -11540665.308 2  20675247.994    20675247.994    20675250.427
        40.000          40.000
                                  24417086.815

 -21068639.136 3 -16386713.109 2  20141335.768    20141335.768    20141340.007
        49.000          49.000
  -2564049.584 3  -1994261.054 2  22906767.742    22906767.742    22906777.539
        39.000          33.000
  -7931654.558 3  -6169062.074 2  22949149.765    22949149.765    22949152.401
        41.000          39.000
 15  3 18  0 41 30.0000000  0 10G30G21G24G13G05G15G28R07R23R08
  -3324196.948 2  -2590282.249 2  24988951.828    24988951.828    24988960.614
        21.000          21.000
  -1910842.255 2  -1488968.582 2  23104435.530    23104435.530    23104438.049
        27.000          27.000
  -8470387.253 2  -6600298.767 2  22358569.290    22358569.290    22358575.615
        33.000          33.000
 -10109057.223 3  -7877185.699 2  20931887.765    20931887.765    20931888.995
        39.000          39.000
 -17488852.836 3 -13627679.373 2  21477388.143    21477388.143    21477390.718
        40.000          40.000
 -14827640.209 3 -11554001.501 2  20671990.957    20671990.957    20671993.447
        40.000          40.000
                                  24414526.429

 -21103656.131 3 -16413948.542 2  20134795.794    20134795.794    20134798.429
        49.000          49.000
  -2555087.376 3  -1987290.466 2  22908445.585    22908445.585    22908452.632
        40.000          34.000
  -8017236.937 3  -6235626.118 2  22933167.814    22933167.814    22933170.736
        42.000          39.000
 15  3 18  0 42  0.0000000  0 10G30G21G24G13G05G15G28R07R23R08
  -3221633.618 2  -2510362.802 1  25008466.616    25008466.616    25008476.261
        19.000          19.000
  -1965725.957 2  -1531735.092 2  23093991.778    23093991.778    23093993.868
        26.000          27.000
  -8567543.811 2  -6676005.164 2  22340080.704    22340080.704    22340087.344
        33.000          33.000
 -10065430.830 3  -7843191.113 2  20940188.421    20940188.421    20940191.541
        39.000          39.000
 -17434221.147 3 -13585109.260 2  21487783.845    21487783.845    21487786.563
        39.000          39.000
 -14844485.399 3 -11567127.623 2  20668785.709    20668785.709    20668787.999
        40.000          40.000
  -3756900.336 2  -2927440.840 2  24412053.174    24412053.174    24412044.732
        27.000          27.000
 -21138453.890 3 -16441013.460 2  20128294.892    20128294.892    20128298.845
        49.000          49.000
  -2545408.240 3  -1979762.268 2  22910254.259    22910254.259    22910263.712
        39.000          34.000
  -8102861.618 3  -6302223.067 2  22917175.982    22917175.982    22917180.108
        40.000          39.000
 15  3 18  0 42 30.0000000  0 10G30G21G24G13G05G15G28R07R23R08
  -3118933.920 2  -2430337.064 1  25028011.531    25028011.531    25028018.685
        17.000          17.000
  -2020182.836 2  -1574169.026 2  23083629.251    23083629.251    23083633.601
        27.000          27.000
  -8664407.897 2  -6751483.630 2  22321648.535    22321648.535    22321654.917
        34.000          34.000
 -10021595.180 3  -7809033.477 2  20948529.897    20948529.897    20948532.701
        39.000          39.000
 -17379262.021 3 -13542283.988 2  21498242.759    21498242.759    21498245.421
        40.000          40.000
 -14861065.549 3 -11580047.222 2  20665630.450    20665630.450    20665632.940
        40.000          40.000
  -3769505.262 2                  24409628.914    24409628.914
        27.000
 -21173034.414 3 -16467909.434 2  20121834.169    20121834.169    20121837.893
        50.000          49.000
  -2535017.145 3  -1971680.305 2  22912196.955    22912196.955    22912204.861
        39.000          34.000
  -8188531.649 3  -6368855.270 2  22901178.993    22901178.993    22901180.941
        41.000          39.000
 15  3 18  0 43  0.0000000  0 11G30G21G24G13G05G15G18G28R07R23R08
  -3016066.136 2  -2350180.377 1  25047589.299    25047589.299    25047594.021
        18.000          18.000
  -2074177.124 2  -1616242.461 2  23073353.835    23073353.835    23073356.497
        26.000          26.000
  -8760942.738 2  -6826705.554 2  22303278.701    22303278.701    22303284.882
        33.000          33.000
  -9977517.285 3  -7774687.066 2  20956918.190    20956918.190    20956920.652
        39.000          39.000
 -17323941.946 3 -13499177.461 2  21508769.551    21508769.551    21508772.241
        40.000          40.000
 -14877346.902 3 -11592733.983 2  20662532.167    20662532.167    20662534.971
        40.000          40.000
                                  24936100.424

  -3781647.959 2  -2946463.617 2  24407327.615    24407327.615    24407320.061
        27.000          27.000
 -21207361.160 3 -16494608.007 2  20115423.397    20115423.397    20115425.575
        50.000          49.000
  -2523880.673 3  -1963018.616 2  22914279.716    22914279.716    22914286.018
        40.000          34.000
  -8274212.023 3  -6435495.536 2  22885177.876    22885177.876    22885180.970
        41.000          39.000
 15  3 18  0 43 30.0000000  0 10G30G21G24G13G05G15G18R07R23R08
  -2913103.413 2  -2269949.695 2  25067180.031    25067180.031    25067190.076
        20.000          20.000
  -2127777.431 2  -1658008.938 2  23063154.414    23063154.414    23063156.818
        26.000          26.000
  -8857217.184 2  -6901724.585 2  22284957.829    22284957.829    22284964.325
        33.000          33.000
  -9933268.963 3  -7740207.875 2  20965339.027    20965339.027    20965340.973
        38.000          38.000
 -17268331.272 3 -13455844.510 2  21519352.118    21519352.118    21519355.438
        39.000          39.000
 -14893400.401 3 -11605243.208 2  20659477.272    20659477.272    20659479.704
        40.000          40.000
   -738843.661 2   -575723.532 1  24918966.894    24918966.894    24918970.243
        16.000          15.000
 -21241504.476 3 -16521163.919 2  20109042.653    20109042.653    20109048.210
        49.000          49.000
  -2512071.935 3  -1953834.083 2  22916485.592    22916485.592    22916493.670
        39.000          33.000
  -8359973.424 3  -6502198.811 2  22869163.243    22869163.243    22869165.134
        41.000          39.000
 15  3 18  0 44  0.0000000  0 10G30G21G24G13G05G15G18R07R23R08
  -2809997.366 2  -2189607.326 1  25086800.956    25086800.956    25086806.537
        19.000          18.000
  -2180931.317 2  -1699427.553 2  23053039.792    23053039.792    23053041.280
        26.000          26.000
  -8953177.764 2  -6976499.019 2  22266697.092    22266697.092    22266703.646
        34.000          34.000
  -9888800.335 3  -7705557.006 2  20973800.952    20973800.952    20973802.841
        38.000          38.000
 -17212379.429 3 -13412245.701 2  21529998.778    21529998.778    21530001.783
        39.000          39.000
 -14909175.616 3 -11617535.573 2  20656475.411    20656475.411    20656477.815
        40.000          40.000
   -828918.608 2   -645911.783 1  24901825.442    24901825.442    24901828.017
        15.000          15.000
 -21275411.427 3 -16547535.979 2  20102711.113    20102711.113    20102713.462
        50.000          49.000
  -2499540.306 3  -1944087.244 2  22918829.898    22918829.898    22918837.174
        39.000          35.000
  -8445763.236 3  -6568924.188 2  22853142.539    22853142.539    22853145.919
        41.000          40.000
 15  3 18  0 44 30.0000000  0 10G30G21G24G13G05G15G18R07R23R08
  -2706754.172 2  -2109158.126 1  25106446.370    25106446.370    25106455.729
        18.000          18.000
  -2233641.188 2  -1740500.168 2  23043008.390    23043008.390    23043012.883
        27.000          27.000
  -9048826.412 2  -7051030.418 2  22248496.297    22248496.297    22248501.706
        33.000          33.000
  -9844116.814 3  -7670738.683 2  20982303.011    20982303.011    20982305.815
        38.000          39.000
 -17156090.413 3 -13368384.147 2  21540710.576    21540710.576    21540713.667
        39.000          39.000
 -14924677.362 3 -11629614.853 2  20653525.263    20653525.263    20653527.810
        40.000          40.000
   -919039.536 2   -716135.817 1  24884676.177    24884676.177    24884681.700
        16.000          16.000
 -21309083.429 3 -16573725.311 2  20096418.501    20096418.501    20096423.027
        49.000          49.000
  -2486291.767 3  -1933782.843 2  22921306.290    22921306.290    22921313.681
        40.000          35.000
  -8531584.954 3  -6635674.378 2  22837114.812    22837114.812    22837118.995
        41.000          40.000
 15  3 18  0 45  0.0000000  0 10G30G21G24G13G05G15G18R07R23R08
  -2603383.772 2  -2028609.841 1  25126119.291    25126119.291    25126124.185
        18.000          18.000
  -2285912.620 2  -1781231.139 2  23033062.703    23033062.703    23033065.650
        27.000          27.000
  -9144168.225 2  -7125322.696 2  22230353.294    22230353.294    22230359.676
        34.000          34.000
  -9799226.742 3  -7635759.415 2  20990845.340    20990845.340    20990847.687
        38.000          38.000
 -17099471.893 3 -13324265.844 2  21551484.870    21551484.870    21551487.703
        39.000          39.000
 -14939913.305 3 -11641487.012 2  20650626.020    20650626.020    20650628.910
        40.000          40.000
  -1009212.118 2   -786400.145 1  24867519.109    24867519.109    24867524.002
        17.000          17.000
 -21342526.774 3 -16599736.809 2  20090172.142    20090172.142    20090176.439
        49.000          49.000
  -2472334.871 3  -1922927.499 2  22923912.953    22923912.953    22923923.266
        39.000          34.000
  -8617444.926 3  -6702454.330 2  22821082.740    22821082.740    22821084.975
        41.000          40.000
 15  3 18  0 45 30.0000000  0 10G30G21G24G13G05G15G18R07R23R08
  -2499884.101 2  -1947960.677 1  25145813.874    25145813.874    25145820.943
        18.000          18.000
  -2337739.573 2  -1821615.766 2  23023200.319    23023200.319    23023202.265
        27.000          27.000
  -9239196.523 2  -7199370.703 2  22212269.722    22212269.722    22212275.303
        34.000          34.000
  -9754126.796 3  -7600616.605 2  20999428.157    20999428.157    20999430.389
        38.000          38.000
 -17042519.653 3 -13279887.510 2  21562322.653    21562322.653    21562325.229
        39.000          39.000
 -14954879.525 3 -11653148.997 2  20647778.046    20647778.046    20647780.850
        40.000          40.000
  -1099430.954 2   -856700.520 1  24850349.835    24850349.835    24850354.671
        16.000          16.000
 -21375734.959 3 -16625565.389 2  20083969.209    20083969.209    20083972.474
        50.000          49.000
  -2457666.509 3  -1911518.784 2  22926656.226    22926656.226    22926664.133
        39.000          34.000
  -8703338.056 3  -6769260.062 2  22805041.988    22805041.988    22805044.566
        41.000          40.000
 15  3 18  0 46  0.0000000  0 10G30G21G24G13G05G15G18R07R23R08
  -2396262.659 2  -1867216.671 1  25165532.625    25165532.625    25165539.122
        16.000          16.000
  -2389125.388 2  -1861656.661 2  23013421.372    23013421.372    23013425.550
        26.000          26.000
  -9333914.099 2  -7273176.558 2  22194244.968    22194244.968    22194251.465
        33.000          33.000
  -9708823.185 3  -7565315.093 2  21008049.051    21008049.051    21008051.169
        37.000          38.000
 -16985238.513 3 -13235252.886 2  21573222.392    21573222.392    21573226.485
        39.000          39.000
 -14969581.018 3 -11664604.697 2  20644980.269    20644980.269    20644983.417
        40.000          40.000
  -1189699.629 2   -927039.695 1  24833172.270    24833172.270    24833175.218
        16.000          16.000
 -21408711.420 3 -16651213.747 2  20077807.122    20077807.122    20077811.648
        49.000          49.000
  -2442293.833 3  -1899562.258 2  22929531.127    22929531.127    22929538.059
        39.000          34.000
  -8789268.340 3  -6836094.699 2  22788996.336    22788996.336    22788998.628
        41.000          40.000
 15  3 18  0 46 30.0000000  0 10G30G21G24G13G05G15G18R07R23R08
  -2292520.529 2  -1786378.675 1  25185273.959    25185273.959    25185283.546
        17.000          17.000
  -2440067.309 2  -1901351.663 2  23003728.056    23003728.056    23003729.773
        27.000          27.000
  -9428317.723 2  -7346737.776 2  22176280.871    22176280.871    22176286.824
        34.000          34.000
  -9663316.094 3  -7529855.023 2  21016708.138    21016708.138    21016711.171
        38.000          38.000
 -16927628.209 3 -13190361.776 2  21584185.520    21584185.520    21584188.697
        39.000          39.000
 -14984017.708 3 -11675854.058 2  20642233.140    20642233.140    20642236.145
        40.000          40.000
  -1280016.295 2   -997416.319 1  24815986.277    24815986.277    24815988.338
        16.000          16.000
 -21441453.020 3 -16676679.434 2  20071692.549    20071692.549    20071695.185
        50.000          49.000
  -2426216.504 3  -1887057.655 2  22932536.449    22932536.449    22932543.553
        39.000          32.000
  -8875233.870 3  -6902956.738 2  22772940.787    22772940.787    22772944.797
        40.000          40.000
 15  3 18  0 47  0.0000000  0 10G30G21G24G13G05G15G18R07R23R08
  -2188657.207 2  -1705446.274 1  25205036.936    25205036.936    25205044.291
        18.000          18.000
  -2490560.820 2  -1940697.260 2  22994119.638    22994119.638    22994120.983
        26.000          27.000
  -9522402.152 2  -7420050.286 2  22158377.535    22158377.535    22158383.230
        34.000          34.000
  -9617603.635 3  -7494234.927 2  21025407.052    21025407.052    21025410.085
        38.000          38.000
 -16869685.873 3 -13145211.935 2  21595212.016    21595212.016    21595214.334
        39.000          39.000
 -14998187.061 3 -11686895.094 2  20639536.764    20639536.764    20639539.454
        40.000          40.000
  -1370376.931 2  -1067827.131 1  24798790.601    24798790.601    24798793.091
        16.000          16.000
 -21473955.475 3 -16701959.108 2  20065619.518    20065619.518    20065623.872
        50.000          49.000
  -2409433.650 3  -1874004.352 2  22935673.695    22935673.695    22935681.830
        39.000          34.000
  -8961230.817 3  -6969843.219 2  22756882.598    22756882.598    22756885.233
        41.000          40.000
 15  3 18  0 47 30.0000000  0 10G30G21G24G13G05G15G18R07R23R08
  -2084683.084 2  -1624427.456 1  25224824.185    25224824.185    25224829.365
        17.000          17.000
  -2540612.126 2  -1979698.263 2  22984594.870    22984594.870    22984596.558
        27.000          26.000
  -9616172.902 2  -7493118.369 2  22140533.037    22140533.037    22140538.989
        34.000          34.000
  -9571694.921 3  -7458461.892 2  21034143.824    21034143.824    21034146.027
        38.000          38.000
 -16811419.431 3 -13099809.523 2  21606299.857    21606299.857    21606302.519
        39.000          39.000
 -15012097.085 3 -11697734.064 2  20636889.901    20636889.901    20636892.591
        41.000          40.000
  -1460788.053 2  -1138277.343 1  24781586.017    24781586.017    24781588.421
        17.000          17.000
 -21506224.374 3 -16727057.140 2  20059591.699    20059591.699    20059595.652
        49.000          49.000
  -2391954.372 3  -1860409.366 2  22938940.436    22938940.436    22938950.977
        39.000          34.000
  -9047266.151 3  -7036759.548 2  22740816.649    22740816.649    22740819.342
        41.000          40.000
 15  3 18  0 48  0.0000000  0 10G30G21G24G13G05G15G18R07R23R08
  -1980592.112 2  -1543317.599 1  25244629.993    25244629.993    25244636.490
        14.000          13.000
  -2590210.992 2  -2018346.720 2  22975155.024    22975155.024    22975159.603
        26.000          26.000
  -9709619.547 2  -7565933.897 2  22122751.168    22122751.168    22122756.949
        34.000          34.000
  -9525582.312 3  -7422529.988 2  21042918.424    21042918.424    21042921.085
        38.000          38.000
 -16752820.738 3 -13054148.250 2  21617450.669    21617450.669    21617453.216
        39.000          39.000
 -15025740.008 3 -11708364.894 2  20634293.820    20634293.820    20634296.625
        42.000          42.000
  -1551240.158 2  -1208759.459 1  24764373.297    24764373.297    24764381.940
        15.000          15.000
 -21538249.829 3 -16751965.813 2  20053609.569    20053609.569    20053613.236
        49.000          49.000
  -2373772.056 3  -1846267.584 2  22942338.514    22942338.514    22942348.826
        38.000          35.000
  -9133330.400 3  -7103698.367 2  22724742.749    22724742.749    22724747.562
        41.000          40.000
 15  3 18  0 48 30.0000000  0 12G30G21G24G13G05G02G15G18G28R07R23R08
  -1876384.824 2  -1462117.159 1  25264460.060    25264460.060    25264468.732
        16.000          16.000
  -2639354.392 2  -2056640.271 2  22965804.308    22965804.308    22965806.626
        26.000          27.000
  -9802738.088 2  -7638493.763 2  22105031.294    22105031.294    22105037.046
        34.000          35.000
  -9479265.399 3  -7386438.889 2  21051731.894    21051731.894    21051734.469
        38.000          38.000
 -16693888.581 3 -13008227.131 2  21628664.957    21628664.957    21628667.533
        39.000          39.000
   -632339.506 2   -492733.504 1  24741860.284    24741860.284    24741869.557
        15.000          15.000
 -15039114.592 3 -11718786.631 2  20631748.565    20631748.565    20631751.312
        43.000          43.000
  -1641730.273 2  -1279271.239 1  24747152.501    24747152.501    24747154.876
        15.000          16.000
                                  24387360.840

 -21570028.079 3 -16776682.227 2  20047671.874    20047671.874    20047676.572
        49.000          49.000
  -2354886.491 3  -1831578.822 2  22945870.200    22945870.200    22945879.997
        39.000          35.000
  -9219420.983 3  -7170657.695 2  22708667.313    22708667.313    22708670.005
        40.000          40.000
 15  3 18  0 49  0.0000000  0 12G30G21G24G13G05G02G15G18G28R07R23R08
  -1772059.220 2  -1380824.520 1  25284316.453    25284316.453    25284320.947
        18.000          18.000
  -2688036.424 2  -2094574.300 2  22956540.687    22956540.687    22956543.205
        27.000          27.000
  -9895522.029 2  -7710792.900 2  22087375.273    22087375.273    22087380.854
        34.000          34.000
  -9432741.035 3  -7350186.139 2  21060585.488    21060585.488    21060587.978
        38.000          39.000
 -16634618.792 3 -12962042.897 2  21639944.140    21639944.140    21639947.345
        39.000          39.000
   -520024.485 2   -405215.667 1  24763237.618    24763237.618    24763242.913
        15.000          15.000
 -15052216.959 3 -11728996.269 2  20629253.339    20629253.339    20629259.120
        42.000          42.000
  -1732252.984 2  -1349808.352 1  24729927.989    24729927.989    24729929.106
        16.000          16.000
   -779063.960 2   -606944.834 1  24386049.602    24386049.602    24386054.667
        19.000          19.000
 -21601552.933 3 -16801201.553 2  20041785.024    20041785.024    20041787.602
        50.000          49.000
  -2335295.205 3  -1816341.158 2  22949531.185    22949531.185    22949541.269
        38.000          34.000
  -9305532.400 3  -7237633.184 2  22692586.738    22692586.738    22692590.175
        41.000          41.000
 15  3 18  0 49 30.0000000  0 12G30G21G24G13G05G02G15G18G28R07R23R08
  -1667637.067 2  -1299456.597 1  25304187.269    25304187.269    25304188.614
        16.000          17.000
  -2736274.765 2  -2132162.615 2  22947360.936    22947360.936    22947364.685
        27.000          27.000
  -9987988.220 2  -7782844.440 2  22069778.920    22069778.920    22069784.643
        34.000          34.000
  -9386029.371 3  -7313787.446 2  21069474.598    21069474.598    21069477.002
        38.000          38.000
 -16575030.770 3 -12915610.722 2  21651282.917    21651282.917    21651286.094
        39.000          39.000
   -407778.000 2   -317751.212 1  24784596.551    24784596.551    24784602.819
        16.000          16.000
 -15065066.960 3 -11739009.240 2  20626810.074    20626810.074    20626812.907
        44.000          43.000
  -1822826.239 2  -1420384.878 1  24712693.489    24712693.489    24712694.806
        18.000          18.000
   -785499.788 2   -611959.659 1  24384827.277    24384827.277    24384830.797
        19.000          19.000
 -21632842.493 3 -16825537.863 2  20035938.617    20035938.617    20035942.513
        50.000          49.000
  -2315019.585 3  -1800571.265 2  22953323.610    22953323.610    22953332.203
        38.000          33.000
  -9391683.477 3  -7304639.568 2  22676499.130    22676499.130    22676501.536
        41.000          40.000
 15  3 18  0 50  0.0000000  0 12G30G21G24G13G05G02G15G18G28R07R23R08
  -1563110.076 2  -1218006.994 1  25324078.114    25324078.114    25324085.870
        19.000          19.000
  -2784057.479 2  -2169395.891 2  22938267.811    22938267.811    22938271.560
        27.000          27.000
 -10080124.662 2  -7854639.043 2  22052246.096    22052246.096    22052252.192
        34.000          34.000
  -9339121.262 3  -7277235.675 2  21078400.307    21078400.307    21078403.340
        38.000          38.000
 -16515114.239 3 -12868922.540 2  21662684.837    21662684.837    21662687.355
        39.000          39.000
   -295591.915 2   -230333.854 1  24805946.754    24805946.754    24805956.341
        15.000          16.000
 -15077654.238 3 -11748817.503 2  20624415.004    20624415.004    20624417.637
        43.000          43.000
  -1913438.508 2  -1490991.848 1  24695447.580    24695447.580    24695454.820
        16.000          16.000
   -791487.130 2   -616625.067 1  24383685.147    24383685.147    24383691.215
        17.000          17.000
 -21663883.894 3 -16849681.178 2  20030139.994    20030139.994    20030143.832
        49.000          49.000
  -2294050.309 3  -1784261.838 2  22957245.124    22957245.124    22957251.025
        39.000          34.000
  -9477862.432 3  -7371667.613 2  22660405.868    22660405.868    22660408.217
        41.000          41.000
 15  3 18  0 50 30.0000000  0 12G30G21G24G13G05G02G15G18G28R07R23R08
  -1458482.103 2  -1136478.723 1  25343987.327    25343987.327    25343991.877
        16.000          16.000
  -2831384.676 2  -2206274.217 2  22929262.652    22929262.652    22929263.797
        27.000          27.000
 -10171930.281 2  -7926175.865 2  22034775.734    22034775.734    22034782.402
        34.000          34.000
  -9292019.117 3  -7240532.703 2  21087363.632    21087363.632    21087366.408
        38.000          38.000
 -16454871.159 3 -12821979.900 2  21674148.188    21674148.188    21674151.651
        39.000          39.000
   -183470.197 2   -142966.654 1  24827283.208    24827283.208    24827287.100
        15.000          15.000
 -15089980.991 3 -11758422.751 2  20622069.124    20622069.124    20622071.814
        41.000          41.000
  -2004090.095 2  -1561629.407 1  24678198.730    24678198.730    24678203.853
        18.000          18.000
   -797026.690 2   -620941.521 2  24382634.059    24382634.059    24382638.695
        20.000          20.000
 -21694676.814 3 -16873631.216 2  20024387.744    20024387.744    20024391.239
        49.000          49.000
  -2272390.855 3  -1767415.593 2  22961292.782    22961292.782    22961300.058
        39.000          34.000
  -9564069.884 3  -7438717.811 2  22644306.945    22644306.945    22644308.721
        41.000          40.000
 15  3 18  0 51  0.0000000  0 12G30G21G24G13G05G02G15G18G28R07R23R08
  -1353756.126 2  -1054874.085 1  25363917.679    25363917.679    25363920.512
        14.000          15.000
  -2878255.237 2  -2242796.712 2  22920342.884    22920342.884    22920345.975
        27.000          27.000
 -10263403.682 2  -7997453.817 2  22017369.548    22017369.548    22017375.729
        34.000          34.000
  -9244724.883 3  -7203680.059 2  21096364.267    21096364.267    21096366.585
        39.000          39.000
 -16394302.178 3 -12774783.328 2  21685673.951    21685673.951    21685677.557
        39.000          39.000
    -71415.807 2    -55651.930 1  24848606.158    24848606.158    24848614.572
        16.000          16.000
 -15102048.130 3 -11767825.708 2  20619772.784    20619772.784    20619775.560
        41.000          41.000
  -2094780.204 2  -1632297.005 1  24660941.547    24660941.547    24660945.954
        16.000          16.000
   -802118.190 2   -624908.859 1  24381663.283    24381663.283    24381668.921
        19.000          19.000
 -21725220.019 3 -16897387.033 2  20018681.091    20018681.091    20018685.331
        49.000          49.000
  -2250044.169 3  -1750034.865 2  22965469.356    22965469.356    22965479.611
        39.000          35.000
  -9650305.193 3  -7505789.702 2  22628204.015    22628204.015    22628205.848
        42.000          40.000
 15  3 18  0 51 30.0000000  0 12G30G21G24G13G05G02G15G18G28R07R23R08
  -1248935.947 2   -973196.019 1  25383861.344    25383861.344    25383867.268
        17.000          17.000
  -2924668.856 2  -2278963.180 2  22911511.179    22911511.179    22911514.184
        27.000          27.000
 -10354543.930 2  -8068472.164 2  22000025.337    22000025.337    22000031.833
        34.000          34.000
  -9197240.719 3  -7166679.406 2  21105400.067    21105400.067    21105402.471
        39.000          39.000
 -16333409.209 3 -12727334.280 2  21697262.001    21697262.001    21697265.320
        39.000          39.000
     40567.230 2     31607.208 1  24869916.779    24869916.779    24869922.188
        17.000          17.000
 -15113857.595 3 -11777027.877 2  20617525.250    20617525.250    20617528.026
        40.000          40.000
  -2185508.960 2  -1702994.702 1  24643675.212    24643675.212    24643678.417
        18.000          18.000
   -806761.552 2   -628526.987 1  24380780.303    24380780.303    24380785.054
        19.000          19.000
 -21755513.486 3 -16920948.610 2  20013022.203    20013022.203    20013026.443
        49.000          49.000
  -2227013.046 3  -1732121.806 2  22969775.422    22969775.422    22969782.985
        39.000          34.000
  -9736569.028 3  -7572883.766 2  22612094.025    22612094.025    22612095.515
        41.000          40.000
 15  3 18  0 52  0.0000000  0 12G30G21G24G13G05G02G15G18G28R07R23R08
  -1144018.446 2   -891442.113 1  25403829.062    25403829.062    25403833.183
        18.000          18.000
  -2970618.546 2  -2314768.132 2  22902766.692    22902766.692    22902770.069
        27.000          27.000
 -10445344.170 2  -8139225.561 2  21982747.055    21982747.055    21982752.779
        34.000          34.000
  -9149562.604 3  -7129527.629 2  21114472.081    21114472.081    21114475.028
        38.000          38.000
 -16272187.463 3 -12679629.076 2  21708912.494    21708912.494    21708915.613
        39.000          39.000
    152482.075 2    118813.246 1  24891212.890    24891212.890    24891217.440
        14.000          14.000
 -15125404.623 3 -11786025.549 2  20615328.253    20615328.253    20615330.915
        41.000          40.000
  -2276270.093 2  -1773717.642 1  24626401.949    24626401.949    24626409.218
        17.000          17.000
   -810950.994 2   -631791.437 1  24379981.533    24379981.533    24379987.772
        18.000          18.000
 -21785549.636 3 -16944310.051 2  20007412.161    20007412.161    20007415.197
        49.000          49.000
  -2203294.092 3  -1713673.732 2  22974209.370    22974209.370    22974218.193
        39.000          34.000
  -9822854.852 3  -7639994.933 2  22595980.525    22595980.525    22595983.103
        42.000          40.000
 15  3 18  0 52 30.0000000  0 13G30G21G24G13G05G02G15G18G28R24R07R23
                                R08
  -1039012.282 2   -809619.161 1  25423808.187    25423808.187    25423816.744
        16.000          16.000
  -3016109.554 2  -2350215.657 2  22894110.339    22894110.339    22894113.745
        27.000          27.000
 -10535807.928 3  -8209716.779 2  21965532.544    21965532.544    21965538.754
        35.000          35.000
  -9101697.759 3  -7092230.358 2  21123581.049    21123581.049    21123583.768
        39.000          38.000
 -16210643.511 3 -12631672.769 2  21720624.258    21720624.258    21720626.576
        39.000          39.000
    264319.864 2    205959.105 1  24912496.196    24912496.196    24912505.211
        14.000          14.000
 -15136695.628 3 -11794823.736 2  20613179.484    20613179.484    20613182.145
        40.000          40.000
  -2367068.763 2  -1844469.820 1  24609126.354    24609126.354    24609130.589
        17.000          17.000
   -814691.728 2   -634706.243 1  24379271.313    24379271.313    24379276.493
        19.000          19.000
   2292693.955 2                  24599605.943    24599605.943
        29.000
 -21815333.088 3 -16967474.958 2  20001847.473    20001847.473    20001851.483
        49.000          49.000
  -2178896.017 3  -1694697.479 2  22978770.668    22978770.668    22978778.288
        39.000          34.000
  -9909167.864 3  -7707127.252 2  22579862.307    22579862.307    22579864.369
        42.000          40.000
 15  3 18  0 53  0.0000000  0 13G30G21G24G13G05G02G15G18G28R24R07R23
                                R08
   -933916.106 2   -727726.088 1  25443809.160    25443809.160    25443812.938
        14.000          14.000
  -3061137.655 2  -2385302.487 2  22885541.616    22885541.616    22885543.992
        27.000          27.000
 -10625929.830 3  -8279941.606 2  21948382.370    21948382.370    21948389.153
        35.000          35.000
  -9053643.930 3  -7054785.810 2  21132725.844    21132725.844    21132727.961
        38.000          38.000
 -16148774.103 3 -12583462.879 2  21732396.680    21732396.680    21732400.457
        39.000          39.000
    376081.445 2    293045.680 1  24933764.001    24933764.001    24933766.147
        14.000          14.000
 -15147727.897 3 -11803420.303 2  20611080.377    20611080.377    20611082.724
        41.000          41.000
  -2457899.744 2  -1915247.195 1  24591840.948    24591840.948    24591842.780
        18.000          18.000
   -817979.765 2   -637268.267 1  24378645.906    24378645.906    24378650.742
        19.000          18.000
   2237138.732 2   1739997.662 2  24589219.935    24589219.935    24589221.768
        30.000          29.000
 -21844858.452 3 -16990439.120 2  19996332.395    19996332.395    19996336.119
        50.000          49.000
  -2153817.169 3  -1675191.729 2  22983458.074    22983458.074    22983465.351
        39.000          33.000
  -9995503.688 3  -7774277.318 2  22563739.067    22563739.067    22563742.561
        42.000          40.000
 15  3 18  0 53 30.0000000  0 13G30G21G24G13G05G02G15G18G28R24R07R23
                                R08
   -828725.032 2   -645759.022 1  25463826.877    25463826.877    25463832.801
        14.000          14.000
  -3105693.247 2  -2420021.131 2  22877063.206    22877063.206    22877066.125
        27.000          27.000
 -10715700.539 3  -8349892.783 2  21931299.909    21931299.909    21931305.861
        35.000          35.000
  -9005394.728 3  -7017189.036 2  21141907.062    21141907.062    21141909.666
        38.000          38.000
 -16086572.221 3 -12534993.919 2  21744233.764    21744233.764    21744237.398
        39.000          39.000
    487771.732 2    380076.689 1  24955018.099    24955018.099    24955025.626
        14.000          14.000
 -15158494.273 3 -11811809.680 2  20609031.621    20609031.621    20609033.882
        40.000          40.000
  -2548754.712 2  -1986043.194 1  24574552.478    24574552.478    24574555.083
        17.000          17.000
   -820805.980 2   -639470.494 1  24378108.674    24378108.674    24378112.051
        19.000          18.000
   2182207.360 2   1697273.208 2  24578947.382    24578947.382    24578950.533
        33.000          32.000
 -21874116.458 3 -17013195.348 2  19990867.020    19990867.020    19990870.457
        49.000          49.000
  -2128052.146 3  -1655152.309 2  22988273.792    22988273.792    22988285.021
        39.000          34.000
 -10081853.757 3  -7841438.452 2  22547612.811    22547612.811    22547616.363
        42.000          40.000
 15  3 18  0 54  0.0000000  0 13G30G21G24G13G05G02G15G18G28R24R07R23
                                R08
   -723454.687 2   -563730.186 1  25483858.865    25483858.865    25483865.361
        15.000          15.000
  -3149788.433 2  -2454381.013 2  22868672.013    22868672.013    22868675.447
        27.000          27.000
 -10805131.247 3  -8419579.012 2  21914281.758    21914281.758    21914287.654
        35.000          35.000
  -8956964.855 3  -6979451.471 2  21151122.661    21151122.661    21151125.379
        38.000          38.000
 -16024051.420 3 -12486276.462 2  21756131.007    21756131.007    21756134.413
        40.000          40.000
    599375.342 2    467040.071 1  24976255.188    24976255.188    24976265.490
        13.000          13.000
 -15169008.711 3 -11820002.745 2  20607030.744    20607030.744    20607033.034
        40.000          41.000
  -2639645.722 2  -2056867.380 1  24557256.839    24557256.839    24557260.559
        18.000          18.000
   -823183.622 2   -641323.132 1  24377656.704    24377656.704    24377659.137
        16.000          16.000
   2127887.917 2   1655024.739 2  24568790.475    24568790.475    24568794.141
        27.000          26.000
 -21903118.920 3 -17035752.821 2  19985448.034    19985448.034    19985452.618
        49.000          49.000
  -2101616.183 3  -1634591.041 2  22993216.698    22993216.698    22993224.891
        40.000          34.000
 -10168230.617 3  -7908620.431 2  22531484.942    22531484.942    22531486.890
        43.000          40.000
 15  3 18  0 54 30.0000000  0 13G30G21G24G13G05G02G15G18G28R24R07R23
                                R08
   -618098.418 2   -481634.378 1  25503908.535    25503908.535    25503914.974
        16.000          15.000
  -3193412.732 2  -2488373.976 2  22860371.299    22860371.299    22860372.844
        27.000          27.000
 -10894211.441 3  -8488992.117 2  21897330.413    21897330.413    21897336.680
        36.000          35.000
  -8908346.056 3  -6941566.695 2  21160374.687    21160374.687    21160376.948
        38.000          38.000
 -15961203.834 3 -12437304.351 2  21768090.681    21768090.681    21768093.886
        39.000          39.000
    710898.459 1    553940.734 1  24997480.341    24997480.341    24997485.664
        11.000          11.000
 -15179263.168 3 -11827993.224 2  20605079.231    20605079.231    20605081.606
        40.000          41.000
  -2730562.615 2  -2127711.633 1  24539956.498    24539956.498    24539958.043
        19.000          19.000
   -825103.093 2   -642818.797 1  24377288.687    24377288.687    24377292.236
        18.000          18.000
   2074192.502 2   1613261.629 2  24558748.414    24558748.414    24558753.570
        31.000          27.000
 -21931854.774 3 -17058102.914 2  19980081.934    19980081.934    19980084.111
        50.000          49.000
  -2074502.741 3  -1613502.842 2  22998286.237    22998286.237    22998293.169
        40.000          33.000
 -10254623.964 3  -7975815.237 2  22515350.361    22515350.361    22515353.225
        43.000          40.000
 15  3 18  0 55  0.0000000  0 13G30G21G24G13G05G02G15G18G28R24R07R23
                                R08
   -512656.817 2   -399472.080 1  25523971.241    25523971.241    25523975.820
        16.000          15.000
  -3236563.307 2  -2521997.800 2  22852159.660    22852159.660    22852162.064
        27.000          27.000
 -10982936.903 3  -8558128.811 2  21880446.942    21880446.942    21880452.866
        35.000          35.000
  -8859537.779 3  -6903534.271 2  21169662.445    21169662.445    21169664.877
        38.000          38.000
 -15898027.610 3 -12388076.156 2  21780112.239    21780112.239    21780115.244
        38.000          38.000
    822340.759 1    640778.458 1  25018684.007    25018684.007    25018692.535
         9.000          10.000
 -15189256.228 3 -11835780.017 2  20603177.805    20603177.805    20603180.237
        41.000          41.000
  -2821503.026 2  -2198574.245 1  24522649.284    24522649.284    24522655.179
        17.000          17.000
   -826561.931 2   -643955.501 1  24377011.491    24377011.491    24377015.355
        16.000          16.000
   2021124.344 2   1571986.352 2  24548821.618    24548821.618    24548825.972
        30.000          27.000
 -21960320.194 3 -17080242.690 2  19974762.860    19974762.860    19974766.756
        49.000          49.000
  -2046711.927 3  -1591887.810 2  23003480.957    23003480.957    23003486.916
        40.000          28.000
 -10341031.162 3  -8043020.805 2  22499214.523    22499214.523    22499216.070
        43.000          41.000
 15  3 18  0 55 30.0000000  0 13G30G21G24G13G05G02G15G18G28R24R07R23
                                R08
   -407140.004 1   -317251.128 1  25544052.559    25544052.559    25544051.872
        12.000          12.000
  -3279246.797 2  -2555257.672 2  22844037.272    22844037.272    22844039.676
        28.000          28.000
 -11071313.744 3  -8626993.845 2  21863629.187    21863629.187    21863634.767
        35.000          35.000
  -8810549.126 3  -6865361.302 2  21178984.945    21178984.945    21178987.406
        38.000          38.000
 -15834531.233 3 -12338598.505 2  21792195.702    21792195.702    21792198.593
        38.000          38.000
    933692.059 2    727545.178 1  25039874.793    25039874.793    25039878.255
        15.000          15.000
 -15198996.135 3 -11843369.553 2  20601324.478    20601324.478    20601326.824
        41.000          41.000
  -2912473.147 2  -2269460.032 1  24505338.618    24505338.618    24505342.854
        18.000          18.000
   -827566.985 2   -644738.627 1  24376819.871    24376819.871    24376824.106
        16.000          16.000
   1968677.884 2   1531194.712 2  24539016.105    24539016.105    24539015.532
        26.000          24.000
 -21988521.462 3 -17102177.011 2  19969493.671    19969493.671    19969498.483
        49.000          49.000
  -2018254.431 3  -1569754.237 2  23008800.077    23008800.077    23008809.072
        40.000          32.000
 -10427459.015 3  -8110242.438 2  22483074.766    22483074.766    22483077.344
        43.000          41.000
 15  3 18  0 56  0.0000000  0 13G30G21G24G13G05G02G15G18G28R24R07R23
                                R08
   -301545.476 2   -234969.654 1  25564142.493    25564142.493    25564151.852
        13.000          13.000
  -3321457.085 2  -2588148.806 2  22836005.196    22836005.196    22836007.829
        28.000          28.000
 -11159334.992 3  -8695581.798 2  21846878.762    21846878.762    21846884.515
        35.000          35.000
  -8761376.487 3  -6827044.971 2  21188342.339    21188342.339    21188344.800
        38.000          38.000
 -15770710.438 3 -12288868.049 2  21804340.563    21804340.563    21804343.740
        38.000          38.000
   1044954.069 1    814242.335 1  25061047.800    25061047.800    25061051.148
        11.000          11.000
 -15208478.289 3 -11850758.241 2  20599520.039    20599520.039    20599522.329
        41.000          41.000
  -3003466.697 2  -2340364.073 1  24488025.648    24488025.648    24488026.850
        19.000          18.000
   -828112.747 2   -645163.867 1  24376716.634    24376716.634    24376720.583
        18.000          18.000
   1916859.999 2   1490891.902 2  24529325.580    24529325.580    24529330.909
        29.000          27.000
 -22016452.690 3 -17123901.303 2  19964277.571    19964277.571    19964280.321
        50.000          49.000
  -1989127.745 3  -1547100.175 2  23014245.813    23014245.813    23014252.917
        40.000          32.000
 -10513901.771 3  -8177475.663 2  22466932.727    22466932.727    22466935.936
        43.000          40.000
 15  3 18  0 56 30.0000000  0 13G30G21G24G13G05G02G15G18G28R24R07R23
                                R08
   -195878.384 1   -152631.759 1  25584250.110    25584250.110    25584254.460
        12.000          12.000
  -3363195.875 2  -2620672.548 2  22828061.430    22828061.430    22828064.149
        28.000          28.000
 -11247001.411 3  -8763893.263 2  21830196.390    21830196.390    21830202.142
        35.000          35.000
  -8712023.464 3  -6788588.074 2  21197733.898    21197733.898    21197736.102
        37.000          38.000
 -15706568.502 3 -12238887.359 2  21816545.632    21816545.632    21816549.553
        38.000          38.000
   1156122.361 1    900866.481 1  25082200.598    25082200.598    25082209.298
        10.000          10.000
 -15217706.204 3 -11857948.815 2  20597763.888    20597763.888    20597766.292
        41.000          41.000
  -3094485.358 2  -2411287.689 1  24470705.083    24470705.083    24470708.031
        19.000          19.000
   -828201.059 2   -645232.609 1  24376699.113    24376699.113    24376704.493
        18.000          18.000
   1865669.732 2   1451077.163 2  24519755.923    24519755.923    24519756.725
        31.000          27.000
 -22044113.934 3 -17145415.605 2  19959109.505    19959109.505    19959113.229
        49.000          49.000
  -1959336.687 3  -1523929.385 2  23019815.129    23019815.129    23019821.488
        40.000          32.000
 -10600361.089 3  -8244721.772 2  22450786.095    22450786.095    22450789.475
        43.000          40.000
 15  3 18  0 57  0.0000000  0 13G30G21G24G13G05G02G15G18G28R24R07R23
                                R08
    -90142.331 1                  25604374.123    25604374.123
        11.000
  -3404463.260 2  -2652828.970 2  22820209.090    22820209.090    22820212.610
        27.000          27.000
 -11334312.633 3  -8831927.933 2  21813581.820    21813581.820    21813587.515
        35.000          35.000
  -8662492.776 3  -6749992.749 2  21207158.781    21207158.781    21207161.986
        37.000          38.000
 -15642106.890 3 -12188657.562 2  21828812.136    21828812.136    21828816.172
        38.000          38.000
   1267192.850 2                  25103337.377    25103337.377
        15.000
 -15226682.393 3 -11864943.251 2  20596055.833    20596055.833    20596057.922
        40.000          40.000
  -3185529.341 2  -2482230.989 1  24453378.360    24453378.360    24453382.567
        20.000          19.000
   -827833.090 2   -644945.893 1  24376769.144    24376769.144    24376772.922
        17.000          17.000
   1815107.987 2   1411751.339 2  24510297.344    24510297.344    24510299.578
        34.000          29.000
 -22071505.342 3 -17166720.043 2  19953992.532    19953992.532    19953996.543
        49.000          49.000
  -1928885.084 3  -1500244.846 2  23025507.867    23025507.867    23025514.112
        40.000          33.000
 -10686837.221 3  -8311980.977 2  22434636.022    22434636.022    22434639.803
        42.000          40.000
 15  3 18  0 57 30.0000000  0 13G30G21G24G13G05G02G15G18G28R24R07R23
                                R08
     15667.380 1     12209.233 1  25624510.349    25624510.349    25624517.675
        10.000           9.000
  -3445251.133 2  -2684611.731 2  22812447.567    22812447.567    22812450.114
        27.000          28.000
 -11421259.898 3  -8899679.012 2  21797035.990    21797035.990    21797042.372
        35.000          35.000
  -8612778.482 3  -6711254.345 2  21216619.130    21216619.130    21216621.562
        38.000          38.000
 -15577319.593 3 -12138174.003 2  21841141.106    21841141.106    21841144.855
        38.000          38.000
   1378170.201 2   1073889.622 1  25124457.050    25124457.050    25124463.775
        15.000          15.000
 -15235399.819 3 -11871736.049 2  20594396.796    20594396.796    20594399.057
        41.000          41.000
  -3276590.401 2  -2553187.622 1  24436049.543    24436049.543    24436050.574
        18.000          19.000
   -827001.135 2   -644297.578 1  24376929.621    24376929.621    24376932.654
        19.000          19.000
   1765183.351 2   1372921.075 2  24500960.800    24500960.800    24500965.268
        33.000          30.000
 -22098617.478 3 -17187807.258 2  19948927.939    19948927.939    19948931.434
        49.000          49.000
  -1897768.085 3  -1476042.772 2  23031324.308    23031324.308    23031331.871
        40.000          33.000
 -10773321.924 3  -8379246.820 2  22418487.164    22418487.164    22418490.029
        42.000          41.000
 15  3 18  0 58  0.0000000  0 13G30G21G24G13G05G02G15G18G28R24R07R23
                                R08
    121540.549 2     94707.718 1  25644654.463    25644654.463    25644657.382
        13.000          13.000
  -3485565.567 2  -2716025.595 2  22804776.109    22804776.109    22804779.113
        27.000          27.000
 -11507848.752 3  -8967150.807 2  21780558.899    21780558.899    21780565.080
        35.000          35.000
  -8562889.320 3  -6672379.685 2  21226113.823    21226113.823    21226115.512
        38.000          38.000
 -15512214.988 3 -12087443.157 2  21853530.894    21853530.894    21853533.727
        38.000          38.000
   1489044.491 1   1160284.759 1  25145559.475    25145559.475    25145567.803
         8.000           8.000
 -15243866.491 3 -11878333.461 2  20592785.813    20592785.813    20592788.045
        41.000          40.000
  -3367674.758 2  -2624162.415 1  24418715.498    24418715.498    24418721.479
        19.000          19.000
   -825711.973 2   -643292.974 1  24377174.413    24377174.413    24377179.192
        19.000          19.000
   1715890.154 2   1334581.916 2  24491743.383    24491743.383    24491744.243
        32.000          24.000
 -22125456.859 3 -17208682.336 2  19943913.535    19943913.535    19943917.144
        49.000          49.000
  -1865996.064 3  -1451331.259 2  23037263.229    23037263.229    23037272.453
        40.000          33.000
 -10859822.101 3  -8446524.695 2  22402333.268    22402333.268    22402336.476
        42.000          41.000
 15  3 18  0 58 30.0000000  0 13G30G21G24G13G05G02G15G18G28R24R07R23
                                R08
    227478.761 2    177256.947 1  25664813.872    25664813.872    25664818.366
        15.000          15.000
  -3525402.302 2  -2747067.209 2  22797194.933    22797194.933    22797197.337
        27.000          27.000
 -11594074.147 3  -9034339.389 2  21764151.226    21764151.226    21764156.520
        36.000          35.000
  -8512822.897 3  -6633366.901 2  21235640.188    21235640.188    21235642.334
        37.000          38.000
 -15446789.788 3 -12036462.504 2  21865979.693    21865979.693    21865983.957
        38.000          38.000
   1599817.315 1                  25166635.180    25166635.180
         7.000
 -15252079.930 3 -11884733.532 2  20591222.899    20591222.899    20591225.017
        40.000          40.000
  -3458778.033 2  -2695151.935 2  24401380.629    24401380.629    24401383.234
        19.000          20.000
   -823961.872 2   -641929.252 2  24377508.089    24377508.089    24377512.324
        20.000          20.000
   1667234.089 2   1296738.286 2  24482646.447    24482646.447    24482647.764
        32.000          28.000
 -22152017.636 3 -17229340.721 2  19938952.133    19938952.133    19938956.144
        49.000          49.000
  -1833567.971 3  -1426109.448 2  23043327.065    23043327.065    23043334.398
        39.000          33.000
 -10946332.747 3  -8513810.732 2  22386178.258    22386178.258    22386180.722
        42.000          41.000
 15  3 18  0 59  0.0000000  0 12G30G21G24G13G05G15G18G28R24R07R23R08
    333483.894 1    259858.380 1  25684987.000    25684987.000    25684992.839
        11.000          11.000
  -3564755.949 2  -2777732.401 2  22789705.901    22789705.901    22789708.706
        27.000          27.000
 -11679930.491 3  -9101240.408 2  21747812.374    21747812.374    21747818.413
        35.000          35.000
  -8462576.604 3  -6594213.957 2  21245201.313    21245201.313    21245204.347
        37.000          37.000
 -15381040.918 3 -11985229.650 2  21878491.842    21878491.842    21878495.849
        38.000          38.000
 -15260036.581 3 -11890933.529 2  20589708.662    20589708.662    20589710.780
        40.000          40.000
  -3549895.041 2  -2766152.185 2  24384040.984    24384040.984    24384049.513
        19.000          20.000
   -821746.436 2   -640202.883 2  24377930.482    24377930.482    24377934.746
        19.000          20.000
   1619220.528 2   1259394.431 2  24473666.183    24473666.183    24473667.157
        32.000          27.000
 -22178294.486 3 -17249778.277 2  19934044.007    19934044.007    19934047.158
        49.000          49.000
  -1800482.903 3  -1400376.654 2  23049511.710    23049511.710    23049520.476
        40.000          33.000
 -11032849.174 3  -8581101.256 2  22370021.866    22370021.866    22370024.788
        42.000          41.000
 15  3 18  0 59 30.0000000  0 12G30G21G24G13G05G15G18G28R24R07R23R08
    439549.448 2    342506.834 1  25705169.643    25705169.643    25705178.314
        14.000          14.000
  -3603629.421 2  -2808023.416 2  22782308.465    22782308.465    22782311.241
        28.000          28.000
 -11765419.525 3  -9167855.214 2  21731544.943    21731544.943    21731550.438
        36.000          36.000
  -8412155.621 3  -6554924.892 2  21254796.670    21254796.670    21254798.760
        37.000          37.000
 -15314972.929 3 -11933748.144 2  21891064.936    21891064.936    21891068.370
        39.000          39.000
 -15267741.434 3 -11896937.298 2  20588242.475    20588242.475    20588244.707
        40.000          40.000
  -3641028.633 2  -2837165.358 1  24366699.159    24366699.159    24366700.619
        18.000          18.000
   -819069.545 2   -638116.977 2  24378439.720    24378439.720    24378442.610
        20.000          20.000
   1571847.320 2   1222548.646 2  24464808.519    24464808.519    24464810.582
        32.000          27.000
 -22204289.804 3 -17269996.860 2  19929186.746    19929186.746    19929190.986
        49.000          49.000
  -1766746.662 3  -1374137.397 2  23055817.734    23055817.734    23055826.557
        40.000          34.000
 -11119374.302 3  -8648398.560 2  22353862.540    22353862.540    22353867.180
        42.000          41.000
 15  3 18  1  0  0.0000000  0 12G30G21G24G13G05G15G18G28R24R07R23R08
    545674.062 1    425201.310 1  25725365.630    25725365.630    25725357.417
         9.000           8.000
  -3642021.270 2  -2837939.151 2  22775003.424    22775003.424    22775005.399
        27.000          27.000
 -11850538.482 3  -9234181.635 2  21715346.902    21715346.902    21715352.826
        36.000          36.000
  -8361559.838 3  -6515499.627 2  21264424.949    21264424.949    21264427.152
        37.000          38.000
 -15248585.312 3 -11882017.555 2  21903698.302    21903698.302    21903701.221
        39.000          39.000
 -15275193.609 3 -11902744.193 2  20586824.316    20586824.316    20586826.548
        41.000          40.000
  -3732176.162 2  -2908189.368 1  24349354.832    24349354.832    24349356.864
        18.000          19.000
   -815929.101 2   -635669.863 2  24379035.920    24379035.920    24379039.125
        21.000          21.000
   1525116.999 2   1186202.817 2  24456067.964    24456067.964    24456069.740
        30.000          29.000
 -22230000.473 3 -17289994.053 2  19924384.374    19924384.374    19924387.812
        49.000          49.000
  -1732361.296 3  -1347393.259 2  23062245.397    23062245.397    23062254.907
        40.000          34.000
 -11205905.767 3  -8715700.773 2  22337705.986    22337705.986    22337707.762
        42.000          41.000
 15  3 18  1  0 30.0000000  0 12G30G21G24G13G05G15G18G28R24R07R23R08
    651856.987 1                  25745574.728    25745574.728
         7.000
  -3679929.089 2  -2867477.717 2  22767789.655    22767789.655    22767792.431
        28.000          28.000
 -11935284.436 3  -9300217.412 2  21699220.680    21699220.680    21699226.690
        37.000          37.000
  -8310789.294 3  -6475938.171 2  21274085.931    21274085.931    21274087.991
        37.000          38.000
 -15181877.675 3 -11830037.608 2  21916390.999    21916390.999    21916395.034
        38.000          38.000
 -15282392.636 3 -11908353.820 2  20585454.427    20585454.427    20585456.716
        40.000          41.000
  -3823335.865 2  -2979222.866 2  24332008.432    24332008.432    24332009.749
        20.000          20.000
   -812323.764 2   -632860.501 2  24379720.756    24379720.756    24379726.995
        20.000          20.000
   1479032.753 2                  24447449.907    24447449.907
        29.000
 -22255423.756 3 -17309768.215 2  19919635.471    19919635.471    19919639.023
        50.000          20.000
  -1697328.080 3  -1320145.760 1  23068794.849    23068794.849    23068807.511
        41.000          18.000
 -11292441.637 3  -8783005.918 1  22321545.482    22321545.482    22321548.576
        42.000          19.000
 15  3 18  1  1  0.0000000  0 12G30G21G24G13G05G15G18G28R24R07R23R08
                                  25765786.523

  -3717358.211 2  -2896643.270 2  22760666.398    22760666.398    22760669.231
        27.000          27.000
 -12019661.989 3  -9365966.129 2  21683164.269    21683164.269    21683169.792
        36.000          36.000
  -8259851.530 3  -6436246.419 2  21283779.364    21283779.364    21283781.253
        37.000          37.000
 -15114856.924 3 -11777813.680 2  21929145.516    21929145.516    21929149.608
        39.000          38.000
 -15289345.595 3 -11913771.709 2  20584131.184    20584131.184    20584133.702
        40.000          41.000
  -3914512.261 2  -3050269.343 1  24314655.762    24314655.762    24314657.165
        19.000          19.000
   -808259.387 2   -629693.446 2  24380495.403    24380495.403    24380500.240
        19.000          20.000
   1433589.501 2                  24438947.879    24438947.879
        30.000
 -22280563.808 3 -17329321.601 1  19914938.013    19914938.013    19914942.482
        49.000          18.000
  -1661656.676 3                  23075463.199    23075463.199
        40.000
 -11378986.918 3  -8850319.395 1  22305381.795    22305381.795    22305385.003
        42.000          19.000
 15  3 18  1  1 30.0000000  0 11G21G24G13G05G15G18G28R24R07R23R08
  -3754299.134 2  -2925428.397 2  22753636.585    22753636.585    22753640.362
        28.000          27.000
 -12103661.329 3  -9431420.121 2  21667179.729    21667179.729    21667185.252
        37.000          37.000
  -8208739.467 3  -6396418.864 2  21293505.223    21293505.223    21293507.569
        37.000          37.000
 -15047515.871 3 -11725340.170 2  21941960.141    21941960.141    21941964.147
        38.000          38.000
 -15296044.938 3 -11918991.977 2  20582856.535    20582856.535    20582858.967
        41.000          41.000
  -4005696.513 2  -3121321.998 1  24297305.191    24297305.191    24297306.679
        19.000          19.000
   -803727.541 2   -626162.110 2  24381358.240    24381358.240    24381361.159
        20.000          20.000
   1388797.258 2                  24430574.213    24430574.213
        32.000
 -22305411.242 3 -17348646.889 2  19910297.824    19910297.824    19910300.632
        49.000          32.000
  -1625341.057 3                  23082252.344    23082252.344
        40.000
 -11465532.667 3  -8917632.709 1  22289222.612    22289222.612    22289226.164
        42.000          18.000
 15  3 18  1  2  0.0000000  0 12G30G21G24G13G05G15G18G28R24R07R23R08
                                  25806246.920

  -3790753.003 2  -2953834.011 2  22746700.585    22746700.585    22746703.618
        27.000          28.000
 -12187282.711 3  -9496579.606 2  21651267.326    21651267.326    21651272.821
        38.000          38.000
  -8157456.386 3  -6356458.033 2  21303263.649    21303263.649    21303266.797
        37.000          37.000
 -14979857.012 3 -11672619.010 2  21954835.422    21954835.422    21954837.912
        38.000          38.000
 -15302493.369 3 -11924016.728 2  20581629.373    20581629.373    20581631.891
        40.000          41.000
  -4096889.245 2  -3192381.237 1  24279950.227    24279950.227    24279955.607
        18.000          18.000
   -798729.904 2   -622267.811 1  24382308.626    24382308.626    24382313.062
        19.000          19.000
   1344655.541 2                  24422319.869    24422319.869
        29.000
 -22329966.079 3 -17367745.097 1  19905710.154    19905710.154    19905713.935
        49.000          18.000
  -1588386.226 3                  23089161.239    23089161.239
        40.000
 -11552079.423 3  -8984946.344 1  22273059.814    22273059.814    22273061.360
        42.000          19.000
 15  3 18  1  2 30.0000000  0 11G21G24G13G05G15G18G28R24R07R23R08
  -3826721.929 2  -2981861.754 2  22739855.561    22739855.561    22739858.452
        28.000          28.000
 -12270527.373 3  -9561445.549 2  21635425.980    21635425.980    21635431.159
        37.000          37.000
  -8106006.003 3  -6316366.843 2  21313055.166    21313055.166    21313057.656
        37.000          37.000
 -14911883.947 3 -11619653.013 2  21967769.251    21967769.251    21967772.771
        37.000          37.000
 -15308694.034 3 -11928848.425 2  20580449.497    20580449.497    20580452.044
        41.000          41.000
  -4188091.905 2  -3263448.203 2  24262596.614    24262596.614    24262600.821
        20.000          20.000
   -793268.793 2   -618012.421 2  24383348.820    24383348.820    24383350.824
        19.000          20.000
   1301163.324 2                  24414187.122    24414187.122
        30.000
 -22354229.317 3 -17386616.524 2  19901176.366    19901176.366    19901181.007
        49.000          20.000
  -1550797.569 3                  23096186.718    23096186.718
        40.000
 -11638628.894 3  -9052263.044 2  22256896.422    22256896.422    22256899.516
        42.000          20.000
 15  3 18  1  3  0.0000000  0 11G21G24G13G05G15G18G28R24R07R23R08
  -3862200.315 2  -3009507.241 2  22733104.224    22733104.224    22733107.171
        27.000          27.000
 -12353388.609 3  -9626012.703 2  21619658.273    21619658.273    21619663.825
        38.000          38.000
  -8054384.582 3  -6276142.380 2  21322878.707    21322878.707    21322880.367
        37.000          37.000
 -14843592.550 3 -11566438.979 2  21980764.927    21980764.927    21980768.476
        37.000          37.000
 -15314642.901 3 -11933483.912 2  20579317.247    20579317.247    20579319.966
        41.000          40.000
  -4279298.739 2  -3334518.420 1  24245240.341    24245240.341    24245242.860
        19.000          19.000
   -787338.899 2   -613391.690 1  24384478.808    24384478.808    24384480.096
        19.000          19.000
   1258326.984 2    978699.416 2  24406177.744    24406177.744    24406178.374
        33.000          28.000
 -22378194.628 3 -17405256.713 1  19896700.515    19896700.515    19896703.666
        49.000          18.000
  -1512573.411 3                  23103333.075    23103333.075
        40.000
 -11725175.088 3  -9119576.246 1  22240736.444    22240736.444    22240737.246
        43.000          18.000
 15  3 18  1  3 30.0000000  0 11G21G24G13G05G15G18G28R24R07R23R08
  -3897190.748 2  -3036772.517 2  22726445.845    22726445.845    22726449.107
        27.000          28.000
 -12435868.926 3  -9690283.049 2  21603962.631    21603962.631    21603967.954
        38.000          37.000
  -8002597.243 3  -6235788.620 2  21332732.577    21332732.577    21332735.581
        37.000          37.000
 -14774987.517 3 -11512980.537 2  21993820.758    21993820.758    21993824.335
        37.000          37.000
 -15320344.224 3 -11937926.504 2  20578232.405    20578232.405    20578235.266
        40.000          41.000
  -4370511.636 2  -3405593.351 1  24227882.486    24227882.486    24227887.809
        19.000          19.000
   -780944.232 2   -608408.783 1  24385694.209    24385694.209    24385698.359
        19.000          18.000
   1216143.878 2    945890.322 2  24398289.238    24398289.238    24398293.592
        33.000          29.000
 -22401863.780 3 -17423665.548 2  19892279.213    19892279.213    19892282.307
        49.000          20.000
  -1473720.436 3                  23110596.564    23110596.564
        40.000
 -11811720.625 3  -9186889.917 2  22224572.911    22224572.911    22224576.979
        42.000          20.000
 15  3 18  1  4  0.0000000  0 11G21G24G13G05G15G18G28R24R07R23R08
  -3931690.162 2  -3063655.177 2  22719881.593    22719881.593    22719883.482
        28.000          28.000
 -12517964.086 3  -9754253.270 2  21588340.479    21588340.479    21588345.830
        37.000          37.000
  -7950643.132 3  -6195304.910 2  21342619.291    21342619.291    21342622.210
        36.000          36.000
 -14706067.347 3 -11459276.557 2  22006935.390    22006935.390    22006939.167
        37.000          37.000
 -15325796.738 3 -11942175.230 2  20577194.701    20577194.701    20577197.449
        40.000          40.000
  -4461727.495 2  -3476670.621 1  24210526.640    24210526.640    24210528.186
        19.000          18.000
   -774082.142 2   -603061.685 1  24386998.692    24386998.692    24387004.044
        19.000          19.000
   1174617.644 2    913592.108 2  24390524.659    24390524.659    24390525.804
        32.000          27.000
 -22425233.072 3 -17441841.669 2  19887912.520    19887912.520    19887916.932
        49.000          49.000
  -1434239.394 3                  23117978.723    23117978.723
        40.000
 -11898262.451 3  -9254199.683 2  22208411.995    22208411.995    22208413.657
        42.000          26.000
 15  3 18  1  4 30.0000000  0 11G21G24G13G05G15G18G28R24R07R23R08
  -3965695.700 2  -3090152.995 2  22713410.570    22713410.570    22713413.174
        28.000          27.000
 -12599670.815 3  -9817920.815 2  21572791.900    21572791.900    21572796.937
        37.000          37.000
  -7898521.298 3  -6154690.511 2  21352537.860    21352537.860    21352540.865
        36.000          36.000
 -14636830.796 3 -11405326.033 2  22020110.690    22020110.690    22020113.781
        37.000          37.000
 -15330998.892 3 -11946228.858 2  20576204.838    20576204.838    20576207.528
        40.000          41.000
  -4552943.518 2  -3547747.991 2  24193166.927    24193166.927    24193170.905
        19.000          20.000
   -766750.356 2   -597348.576 1  24388393.507    24388393.507    24388398.057
        19.000          19.000
   1133751.655 2    881807.463 2  24382880.938    24382880.938    24382883.975
        32.000          25.000
 -22448298.578 3 -17459781.506 2  19883604.938    19883604.938    19883608.204
        49.000          37.000
  -1394131.325 3                  23125474.417    23125474.417
        39.000
 -11984797.109 3  -9321504.892 2  22192252.925    22192252.925    22192255.102
        42.000          42.000
 15  3 18  1  5  0.0000000  0 11G21G24G13G05G15G18G28R24R07R23R08
  -3999210.952 2  -3116268.785 2  22707032.754    22707032.754    22707035.501
        28.000          28.000
 -12680990.713 3  -9881286.942 2  21557317.345    21557317.345    21557322.382
        37.000          37.000
  -7846236.404 3  -6113949.048 2  21362487.498    21362487.498    21362490.331
        36.000          36.000
 -14567282.496 3 -11351132.592 2  22033345.087    22033345.087    22033348.607
        37.000          37.000
 -15335955.110 3 -11950090.855 2  20575261.716    20575261.716    20575264.578
        40.000          40.000
  -4644161.750 2  -3618827.125 1  24175809.104    24175809.104    24175812.910
        19.000          19.000
   -758952.551 2   -591272.376 1  24389877.574    24389877.574    24389882.325
        18.000          18.000
   1093543.543 2    850534.467 2  24375361.480    24375361.480    24375366.637
        33.000          31.000
 -22471062.588 3 -17477486.850 2  19879352.950    19879352.950    19879356.273
        50.000          50.000
  -1353402.890 3  -1052648.159 1  23133087.713    23133087.713    23133095.906
        39.000          17.000
 -12071327.095 3  -9388805.979 2  22176092.360    22176092.360    22176096.542
        42.000          42.000
 15  3 18  1  5 30.0000000  0 11G21G24G13G05G15G18G28R24R07R23R08
  -4032231.277 2  -3141998.904 2  22700748.072    22700748.072    22700751.993
        28.000          28.000
 -12761919.280 3  -9944348.133 2  21541917.016    21541917.016    21541922.397
        37.000          37.000
  -7793785.993 3  -6073078.596 2  21372469.163    21372469.163    21372471.911
        37.000          37.000
 -14497419.631 3 -11296694.027 2  22046640.602    22046640.602    22046643.350
        37.000          37.000
 -15340662.493 3 -11953758.950 2  20574365.911    20574365.911    20574368.659
        40.000          41.000
  -4735377.205 2  -3689904.051 1  24158451.618    24158451.618    24158454.709
        19.000          19.000
   -750685.133 2   -584830.215 1  24391451.111    24391451.111    24391455.604
        18.000          18.000
   1053997.967 2    819776.767 2  24367964.445    24367964.445    24367969.372
        32.000          31.000
 -22493519.608 3 -17494953.422 2  19875157.030    19875157.030    19875160.583
        49.000          49.000
  -1312053.616 3                  23140818.651    23140818.651
        39.000
 -12157848.178 3  -9456100.111 2  22159936.874    22159936.874    22159937.848
        42.000          42.000
 15  3 18  1  6  0.0000000  0 11G21G24G13G05G15G18G28R24R07R23R08
  -4064762.442 2  -3167347.873 2  22694558.333    22694558.333    22694561.224
        28.000          28.000
 -12842461.287 3 -10007108.102 2  21526590.308    21526590.308    21526595.717
        36.000          37.000
  -7741177.956 3  -6032085.330 2  21382479.265    21382479.265    21382482.528
        36.000          36.000
 -14427249.249 3 -11242015.837 2  22059993.007    22059993.007    22059996.756
        37.000          38.000
 -15345128.260 3 -11957238.779 2  20573516.031    20573516.031    20573518.893
        40.000          40.000
  -4826595.863 2  -3760983.510 2  24141092.822    24141092.822    24141096.370
        20.000          20.000
   -741954.269 2   -578026.875 1  24393111.853    24393111.853    24393116.804
        18.000          18.000
   1015110.072 2    789530.630 2  24360692.323    24360692.323    24360697.995
        34.000          32.000
 -22515674.621 3 -17512185.104 2  19871018.572    19871018.572    19871021.837
        50.000          49.000
  -1270092.869 3   -987852.037 1  23148662.639    23148662.639    23148672.780
        39.000          17.000
 -12244365.360 3  -9523391.213 2  22143780.692    22143780.692    22143782.239
        42.000          42.000
 15  3 18  1  6 30.0000000  0 11G21G24G13G05G15G18G28R24R07R23R08
  -4096797.029 2  -3192309.894 2  22688462.374    22688462.374    22688464.234
        27.000          27.000
 -12922608.311 3 -10069560.305 2  21511338.856    21511338.856    21511344.036
        37.000          36.000
  -7688406.764 3  -5990964.942 2  21392520.024    21392520.024    21392524.288
        35.000          36.000
 -14356766.216 3 -11187094.052 2  22073405.680    22073405.680    22073409.343
        38.000          38.000
 -15349346.492 3 -11960525.720 2  20572713.460    20572713.460    20572716.007
        40.000          41.000
  -4917809.332 2  -3832058.897 2  24123734.502    24123734.502    24123738.967
        20.000          21.000
   -732753.375 2   -570857.355 1  24394862.998    24394862.998    24394866.003
        18.000          18.000
    976887.576 3    759802.036 2  24353546.064    24353546.064    24353548.872
        35.000          30.000
 -22537519.004 3 -17529175.169 2  19866937.941    19866937.941    19866940.977
        50.000          50.000
  -1227517.369 3   -954737.310 1  23156621.364    23156621.364    23156625.948
        38.000          17.000
 -12330870.733 3  -9590673.152 2  22127624.297    22127624.297    22127628.765
        42.000          42.000
 15  3 18  1  7  0.0000000  0 11G21G24G13G05G15G18G28R24R07R23R08
  -4128334.001 2  -3216884.155 2  22682461.035    22682461.035    22682464.241
        27.000          27.000
 -13002358.550 3 -10131703.317 2  21496162.814    21496162.814    21496167.908
        37.000          37.000
  -7635473.133 3  -5949717.971 2  21402594.184    21402594.184    21402596.702
        36.000          36.000
 -14285970.729 3 -11131928.776 2  22086877.707    22086877.707    22086880.969
        37.000          38.000
 -15353317.421 3 -11963619.958 2  20571957.906    20571957.906    20571960.654
        41.000          41.000
  -5009016.028 2  -3903129.036 2  24106380.820    24106380.820    24106381.106
        20.000          20.000
   -723081.900 2   -563321.110 1  24396702.718    24396702.718    24396707.211
        19.000          19.000
    939331.764 2    730591.974 2  24346523.592    24346523.592    24346526.056
        33.000          29.000
 -22559050.487 3 -17545921.896 2  19862914.533    19862914.533    19862919.174
        50.000          50.000
  -1184329.821 3   -921147.537 1  23164694.522    23164694.522    23164699.793
        38.000          18.000
 -12417362.912 3  -9657944.824 2  22111473.099    22111473.099    22111476.880
        42.000          42.000
 15  3 18  1  7 30.0000000  0 11G21G24G13G05G15G18G28R24R07R23R08
  -4159370.781 2  -3241068.661 2  22676555.499    22676555.499    22676557.531
        28.000          28.000
 -13081709.216 3 -10193534.970 2  21481062.796    21481062.796    21481067.948
        37.000          37.000
  -7582377.224 3  -5908344.552 2  21412698.513    21412698.513    21412700.917
        36.000          36.000
 -14214862.743 3 -11076519.985 2  22100409.366    22100409.366    22100412.257
        38.000          38.000
 -15357040.479 3 -11966521.056 2  20571249.536    20571249.536    20571252.112
        41.000          41.000
  -5100213.982 2  -3974192.351 2  24089024.651    24089024.651    24089029.029
        21.000          20.000
   -712938.598 2   -555417.232 1  24398633.146    24398633.146    24398637.353
        19.000          18.000
    902445.286 2    701902.511 2  24339625.907    24339625.907    24339629.689
        32.000          30.000
 -22580266.767 3 -17562423.448 2  19858951.971    19858951.971    19858955.523
        50.000          49.000
  -1140532.416 3   -887082.905 1  23172883.040    23172883.040    23172896.046
        38.000          17.000
 -12503839.492 3  -9725204.349 2  22095326.708    22095326.708    22095326.536
        43.000          41.000
 15  3 18  1  8  0.0000000  0 11G21G24G13G05G15G18G28R24R07R23R08
  -4189915.130 2  -3264869.458 2  22670742.841    22670742.841    22670745.502
        28.000          28.000
 -13160666.309 3 -10255059.944 2  21466037.860    21466037.860    21466043.069
        37.000          37.000
  -7529127.092 3  -5866850.958 2  21422831.464    21422831.464    21422834.669
        36.000          36.000
 -14143449.994 3 -11020873.728 2  22113998.621    22113998.621    22114002.141
        38.000          38.000
 -15360523.376 3 -11969235.003 2  20570586.716    20570586.716    20570589.348
        40.000          40.000
  -5191409.100 2  -4045253.439 2  24071670.767    24071670.767    24071674.459
        20.000          20.000
   -702330.691 2   -547151.311 1  24400653.729    24400653.729    24400656.791
        19.000          19.000
    866221.896 2    673728.769 2  24332852.217    24332852.217    24332854.967
        32.000          31.000
 -22601173.203 3 -17578684.009 2  19855046.631    19855046.631    19855050.011
        50.000          50.000
  -1096135.535 3   -852551.525 1  23181180.328    23181180.328    23181188.120
        38.000          18.000
 -12590306.264 3  -9792456.262 2  22079175.776    22079175.776    22079179.786
        41.000          42.000
 15  3 18  1  8 30.0000000  0 11G21G24G13G05G15G18G28R24R07R23R08
  -4219959.957 2  -3288281.009 2  22665025.553    22665025.553    22665028.301
        28.000          27.000
 -13239222.478 3 -10316272.517 2  21451089.618    21451089.618    21451094.684
        38.000          38.000
  -7475717.990 3  -5825233.498 2  21432994.590    21432994.590    21432997.881
        36.000          36.000
 -14071727.412 3 -10964986.042 2  22127646.712    22127646.712    22127650.947
        37.000          38.000
 -15363761.266 3 -11971758.031 2  20569970.573    20569970.573    20569973.120
        40.000          40.000
  -5282593.519 2  -4116306.228 2  24054319.618    24054319.618    24054321.507
        21.000          21.000
   -691252.200 2   -538518.692 1  24402761.896    24402761.896    24402765.072
        19.000          19.000
    830668.819 2    646076.326 2  24326203.140    24326203.140    24326207.494
        32.000          33.000
 -22621762.032 3 -17594697.533 2  19851199.850    19851199.850    19851203.459
        50.000          50.000
  -1051136.108 3   -817552.008 1  23189593.238    23189593.238    23189606.015
        38.000          18.000
 -12676756.181 3  -9859695.060 2  22063033.455    22063033.455    22063037.064
        42.000          43.000
 15  3 18  1  9  0.0000000  0 11G21G24G13G05G15G18G28R24R07R23R08
  -4249502.475 2  -3311301.148 2  22659403.540    22659403.540    22659406.717
        28.000          28.000
 -13317373.597 3 -10377169.457 2  21436217.460    21436217.460    21436222.583
        38.000          38.000
  -7422148.795 3  -5783491.300 2  21443187.972    21443187.972    21443191.550
        36.000          36.000
 -13999693.745 3 -10908855.948 2  22141354.536    22141354.536    22141358.171
        37.000          38.000
 -15366752.136 3 -11974088.589 2  20569401.265    20569401.265    20569403.812
        41.000          40.000
  -5373763.772 2  -4187347.953 2  24036969.623    24036969.623    24036972.685
        20.000          20.000
   -679701.125 2   -529517.857 1  24404957.593    24404957.593    24404961.228
        19.000          19.000
    795788.953 2    618947.537 2  24319679.701    24319679.701    24319683.024
        34.000          32.000
 -22642029.091 3 -17610460.814 2  19847413.057    19847413.057    19847418.157
        50.000          50.000
  -1005535.317 3   -782084.753 2  23198119.606    23198119.606    23198126.367
        38.000          33.000
 -12763185.708 3  -9926917.980 2  22046893.341    22046893.341    22046896.263
        42.000          42.000
 15  3 18  1  9 30.0000000  0 11G21G24G13G05G15G18G28R24R07R23R08
  -4278548.147 2  -3333934.143 2  22653876.590    22653876.590    22653878.851
        28.000          28.000
 -13395125.199 3 -10437755.094 2  21421422.025    21421422.025    21421427.033
        38.000          38.000
  -7368427.473 3  -5741630.549 2  21453411.762    21453411.762    21453414.223
        35.000          36.000
 -13927356.971 3 -10852489.661 2  22155119.219    22155119.219    22155123.598
        38.000          38.000
 -15369503.490 3 -11976232.511 2  20568877.666    20568877.666    20568880.356
        40.000          40.000
  -5464925.773 2  -4258383.268 2  24019623.371    24019623.371    24019626.004
        21.000          21.000
   -667683.840 2   -520153.726 2  24407245.003    24407245.003    24407248.551
        20.000          20.000
    761576.972 2    592338.196 2  24313281.771    24313281.771    24313285.495
        33.000          32.000
 -22661979.821 3 -17625978.042 2  19843687.158    19843687.158    19843690.825
        50.000          50.000
   -959343.156 3   -746157.551 2  23206754.746    23206754.746    23206762.137
        38.000          33.000
 -12849600.171 3  -9994129.209 2  22030754.344    22030754.344    22030758.354
        42.000          42.000
 15  3 18  1 10  0.0000000  0 11G21G24G13G05G15G18G28R24R07R23R08
  -4307090.444 2  -3356174.906 2  22648445.057    22648445.057    22648448.119
        28.000          28.000
 -13472468.904 3 -10498022.888 2  21406703.848    21406703.848    21406709.343
        38.000          38.000
  -7314548.271 3  -5699646.771 2  21463665.075    21463665.075    21463666.563
        36.000          36.000
 -13854711.050 3 -10795882.491 2  22168943.840    22168943.840    22168946.902
        37.000          37.000
 -15372009.356 3 -11978185.137 2  20568400.905    20568400.905    20568403.510
        40.000          40.000
  -5556071.199 2  -4329405.659 2  24002278.542    24002278.542    24002282.635
        21.000          22.000
   -655193.464 2   -510420.945 1  24409620.770    24409620.770    24409626.379
        18.000          18.000
    728040.458 2    566254.215 2  24307010.505    24307010.505    24307013.714
        33.000          31.000
 -22681605.232 3 -17641242.259 2  19840021.446    19840021.446    19840024.654
        50.000          50.000
   -912556.376 3   -709767.876 2  23215500.029    23215500.029    23215509.539
        37.000          34.000
 -12935991.550 3 -10061322.483 2  22014624.348    22014624.348    22014626.066
        43.000          42.000
 15  3 18  1 10 30.0000000  0 11G21G24G13G05G15G18G28R24R07R23R08
  -4335131.979 2  -3378025.457 2  22643109.243    22643109.243    22643112.047
        28.000          28.000
 -13549406.650 3 -10557974.344 2  21392062.856    21392062.856    21392068.523
        38.000          38.000
  -7260515.699 3  -5657543.493 2  21473946.158    21473946.158    21473949.020
        35.000          35.000
 -13781760.049 3 -10739037.599 2  22182825.493    22182825.493    22182828.841
        37.000          37.000
 -15374273.317 3 -11979949.272 2  20567970.065    20567970.065    20567972.584
        40.000          40.000
  -5647202.167 2  -4400416.782 2  23984935.667    23984935.667    23984939.531
        21.000          21.000
   -642233.885 2   -500322.583 1  24412090.091    24412090.091    24412092.209
        19.000          19.000
    695177.272 2    540693.979 2  24300864.054    24300864.054    24300869.039
        32.000          30.000
 -22700907.064 3 -17656254.802 2  19836414.574    19836414.574    19836418.871
        50.000          50.000
   -865181.423 3   -672920.737 2  23224356.996    23224356.996    23224364.616
        38.000          33.000
 -13022362.144 3 -10128499.591 2  21998496.336    21998496.336    21998497.539
        44.000          43.000
 15  3 18  1 11  0.0000000  0 11G21G24G13G05G15G18G28R24R07R23R08
  -4362667.432 2  -3399481.654 2  22637868.390    22637868.390    22637871.481
        28.000          28.000
 -13625932.421 3 -10617604.790 2  21377500.726    21377500.726    21377506.077
        38.000          38.000
  -7206325.897 3  -5615317.691 2  21484257.973    21484257.973    21484261.064
        35.000          35.000
 -13708500.309 3 -10681952.125 2  22196767.188    22196767.188    22196770.794
        37.000          37.000
 -15376291.889 3 -11981522.186 2  20567585.904    20567585.904    20567588.565
        41.000          41.000
  -5738312.509 2  -4471411.824 2  23967598.485    23967598.485    23967602.177
        21.000          21.000
   -628800.155 2   -489854.716 2  24414645.184    24414645.184    24414646.673
        19.000          20.000
    662992.497 2    515661.364 2  24294847.340    24294847.340    24294849.001
        31.000          29.000
 -22719878.731 3 -17671010.544 2  19832871.470    19832871.470    19832875.080
        50.000          50.000
   -817217.171 3   -635615.256 2  23233323.598    23233323.598    23233331.734
        38.000          34.000
 -13108705.558 3 -10195655.559 2  21982367.826    21982367.826    21982372.467
        43.000          43.000
 15  3 18  1 11 30.0000000  0 11G21G24G13G05G15G18G28R24R07R23R08
  -4389703.912 2  -3420549.051 2  22632723.987    22632723.987    22632726.849
        28.000          28.000
 -13702052.661 3 -10676919.242 2  21363014.953    21363014.953    21363021.135
        38.000          38.000
  -7151987.573 3  -5572976.165 2  21494598.649    21494598.649    21494602.398
        35.000          35.000
 -13634940.670 3 -10624632.963 2  22210764.176    22210764.176    22210768.297
        37.000          37.000
 -15378072.916 3 -11982910.014 2  20567246.971    20567246.971    20567249.632
        41.000          41.000
  -5829408.682 2  -4542395.840 2  23950261.676    23950261.676    23950266.456
        20.000          20.000
   -614900.254 2   -479023.616 2  24417288.820    24417288.820    24417293.227
        20.000          20.000
    631479.593 2    491151.377 2  24288956.116    24288956.116    24288951.247
        29.000          25.000
 -22738526.576 3 -17685514.431 2  19829387.152    19829387.152    19829391.678
        50.000          49.000
   -768674.716 3   -597860.063 2  23242396.178    23242396.178    23242406.147
        37.000          33.000
 -13195028.326 3 -10262795.488 2  21966250.565    21966250.565    21966251.654
        44.000          42.000
 15  3 18  1 12  0.0000000  0 11G21G24G13G05G15G18G28R24R07R23R08
  -4416234.030 2  -3441221.882 2  22627674.946    22627674.946    22627678.294
        28.000          28.000
 -13777758.866 3 -10735911.059 2  21348608.683    21348608.683    21348614.665
        38.000          38.000
  -7097495.277 3  -5530514.652 2  21504967.735    21504967.735    21504971.169
        35.000          35.000
 -13561075.032 3 -10567075.379 2  22224820.294    22224820.294    22224824.301
        37.000          37.000
 -15379610.458 3 -11984108.103 2  20566954.476    20566954.476    20566957.224
        41.000          40.000
  -5920482.458 2  -4613362.360 2  23932932.247    23932932.247    23932935.224
        20.000          21.000
   -600527.795 2   -467824.228 2  24420024.835    24420024.835    24420027.983
        20.000          20.000
    600646.337 2    467169.947 2  24283189.171    24283189.171    24283188.770
        25.000          26.000
 -22756841.917 3 -17699759.694 2  19825966.296    19825966.296    19825969.333
        50.000          49.000
   -719550.560 3   -559652.421 2  23251581.504    23251581.504    23251591.015
        37.000          33.000
 -13281322.241 3 -10329912.946 2  21950137.283    21950137.283    21950137.684
        44.000          42.000
 15  3 18  1 12 30.0000000  0 10G21G24G13G05G15G18G28R07R23R08
  -4442261.294 2  -3461502.859 2  22622722.611    22622722.611    22622725.015
        28.000          28.000
 -13853053.500 3 -10794582.179 2  21334280.443    21334280.443    21334286.110
        38.000          37.000
  -7042853.827 3  -5487936.909 2  21515366.667    21515366.667    21515369.386
        35.000          35.000
 -13486908.324 3 -10509283.181 2  22238933.929    22238933.929    22238937.134
        36.000          37.000
 -15380908.872 3 -11985119.866 2  20566707.421    20566707.421    20566710.083
        41.000          41.000
  -6011536.351 2  -4684313.435 2  23915604.770    23915604.770    23915609.893
        21.000          21.000
   -585686.019 2   -456259.214 2  24422849.692    24422849.692    24422853.241
        20.000          20.000
 -22774826.815 3 -17713747.947 2  19822607.060    19822607.060    19822609.925
        50.000          49.000
   -669851.691 3   -520997.797 2  23260871.952    23260871.952    23260879.973
        37.000          34.000
 -13367589.823 3 -10397009.942 2  21934023.019    21934023.019    21934028.519
        44.000          42.000
 15  3 18  1 13  0.0000000  0 11G21G24G13G05G15G18G28R24R07R23R08
  -4467782.886 2  -3481389.839 2  22617866.039    22617866.039    22617868.873
        28.000          28.000
 -13927933.003 3 -10852929.813 2  21320031.782    21320031.782    21320037.506
        38.000          37.000
  -6988061.864 2  -5445241.893 2  21525792.639    21525792.639    21525794.986
        34.000          34.000
 -13412439.260 3 -10451255.389 2  22253105.148    22253105.148    22253108.468
        36.000          36.000
 -15381966.707 3 -11985944.161 2  20566506.242    20566506.242    20566508.875
        41.000          41.000
  -6102566.936 2  -4755246.340 2  23898281.779    23898281.779    23898287.560
        21.000          21.000
   -570372.905 2   -444326.922 2  24425763.506    24425763.506    24425766.025
        20.000          20.000
    541013.182 2    420788.566 2  24272037.050    24272037.050    24272040.889
        25.000          24.000
 -22792477.236 3 -17727476.068 2  19819309.377    19819309.377    19819313.272
        50.000          49.000
   -619579.549 3   -481897.300 2  23270268.559    23270268.559    23270278.585
        37.000          33.000
 -13453827.190 3 -10464083.454 2  21917920.103    21917920.103    21917923.426
        44.000          43.000
 15  3 18  1 13 30.0000000  0 11G21G24G13G05G15G18G28R24R07R23R08
  -4492796.694 2  -3500881.109 2  22613105.687    22613105.687    22613108.377
        28.000          28.000
 -14002394.449 3 -10910951.686 2  21305861.620    21305861.620    21305867.401
        37.000          37.000
  -6933119.071 2  -5402429.323 2  21536246.999    21536246.999    21536251.235
        34.000          34.000
 -13337667.114 3 -10392991.411 2  22267333.677    22267333.677    22267336.968
        36.000          36.000
 -15382782.694 3 -11986580.003 2  20566350.942    20566350.942    20566353.574
        41.000          41.000
  -6193571.156 2  -4826158.693 2  23880964.743    23880964.743    23880969.952
        21.000          21.000
   -554587.429 2   -432026.545 2  24428766.280    24428766.280    24428770.172
        21.000          21.000
    512218.217 2    398392.614 2  24266656.925    24266656.925    24266660.134
        23.000          21.000
 -22809789.659 3 -17740941.288 2  19816075.565    19816075.565    19816078.773
        50.000          49.000
   -568735.954 3   -442352.336 2  23279773.117    23279773.117    23279783.659
        37.000          34.000
 -13540031.691 3 -10531131.372 2  21901825.515    21901825.515    21901824.541
        44.000          42.000
 15  3 18  1 14  0.0000000  0 10G21G24G13G05G15G18G28R07R23R08
  -4517304.779 2  -3519978.327 2  22608442.188    22608442.188    22608444.020
        28.000          28.000
 -14076438.673 3 -10968648.458 2  21291771.681    21291771.681    21291777.175
        37.000          37.000
  -6878028.489 3  -5359501.614 2  21546730.955    21546730.955    21546734.704
        35.000          35.000
 -13262595.030 3 -10334493.730 2  22281619.811    22281619.811    22281622.959
        36.000          36.000
 -15383359.704 3 -11987029.620 2  20566241.143    20566241.143    20566243.719
        41.000          41.000
  -6284549.726 2  -4897051.060 2  23863652.843    23863652.843    23863654.502
        21.000          21.000
   -538332.041 2   -419360.007 1  24431859.680    24431859.680    24431864.430
        19.000          19.000
 -22826765.166 3 -17754144.464 2  19812904.478    19812904.478    19812907.228
        50.000          49.000
   -517326.748 3   -402367.440 2  23289386.418    23289386.418    23289393.580
        38.000          34.000
 -13626203.986 3 -10598154.250 2  21885730.247    21885730.247    21885732.710
        44.000          43.000
 15  3 18  1 14 30.0000000  0 10G21G24G13G05G15G18G28R07R23R08
  -4541307.087 2  -3538681.437 2  22603874.452    22603874.452    22603877.085
        28.000          28.000
 -14150064.581 3 -11026019.264 2  21277761.692    21277761.692    21277766.500
        38.000          38.000
  -6822791.585 3  -5316459.891 2  21557242.026    21557242.026    21557246.433
        36.000          36.000
 -13187224.824 3 -10275763.759 2  22295962.304    22295962.304    22295965.939
        36.000          37.000
 -15383699.024 3 -11987294.037 2  20566176.551    20566176.551    20566179.355
        41.000          41.000
  -6375501.850 2  -4967922.821 2  23846345.392    23846345.392    23846346.679
        21.000          22.000
   -521607.044 2   -406327.484 2  24435043.975    24435043.975    24435047.581
        19.000          20.000
 -22843401.883 3 -17767084.130 2  19809795.970    19809795.970    19809799.580
        49.000          50.000
   -465355.928 3   -361945.738 2  23299099.845    23299099.845    23299106.949
        38.000          34.000
 -13712343.052 3 -10665151.296 2  21869643.740    21869643.740    21869648.266
        44.000          43.000
 15  3 18  1 15  0.0000000  0 10G21G24G13G05G15G18G28R07R23R08
  -4564800.622 2  -3556988.093 2  22599404.201    22599404.201    22599407.463
        28.000          28.000
 -14223268.679 3 -11083061.382 2  21263830.875    21263830.875    21263836.513
        38.000          38.000
  -6767407.179 3  -5273303.215 2  21567782.430    21567782.430    21567785.320
        36.000          36.000
 -13111555.079 3 -10216800.359 2  22310361.423    22310361.423    22310365.172
        36.000          36.000
 -15383798.624 3 -11987371.655 2  20566157.488    20566157.488    20566160.464
        41.000          41.000
  -6466423.297 2  -5038770.688 2  23829042.776    23829042.776    23829046.296
        22.000          22.000
   -504410.425 2   -392927.551 2  24438316.907    24438316.907    24438317.852
        20.000          20.000
 -22859696.189 3 -17779757.487 2  19806750.431    19806750.431    19806755.931
        50.000          49.000
   -412824.691 3   -321088.153 2  23308919.474    23308919.474    23308927.266
        38.000          33.000
 -13798445.167 3 -10732119.585 2  21853568.390    21853568.390    21853569.250
        45.000          43.000
 15  3 18  1 15 30.0000000  0 10G21G24G13G05G15G18G28R07R23R08
  -4587783.747 2  -3574897.037 2  22595030.874    22595030.874    22595033.192
        28.000          28.000
 -14296048.223 3 -11139772.683 2  21249981.250    21249981.250    21249987.289
        38.000          38.000
  -6711874.411 3  -5230030.932 2  21578349.710    21578349.710    21578352.887
        36.000          36.000
 -13035584.926 3 -10157602.877 2  22324818.332    22324818.332    22324821.566
        36.000          36.000
 -15383657.946 3 -11987262.041 2  20566184.155    20566184.155    20566187.303
        41.000          40.000
  -6557311.919 2  -5109592.970 2  23811746.508    23811746.508    23811750.686
        21.000          21.000
   -486741.234 2   -379159.360 1  24441678.391    24441678.391    24441681.425
        19.000          19.000
 -22875644.173 3 -17792161.487 2  19803773.584    19803773.584    19803776.506
        50.000          49.000
   -359735.031 3   -279796.212 2  23318844.817    23318844.817    23318852.895
        39.000          34.000
 -13884507.358 3 -10799056.823 2  21837494.794    21837494.794    21837496.914
        44.000          43.000
 15  3 18  1 16  0.0000000  0 10G21G24G13G05G15G18G28R07R23R08
  -4610262.580 2  -3592413.029 2  22590753.785    22590753.785    22590756.933
        28.000          28.000
 -14368408.549 3 -11196157.321 2  21236211.759    21236211.759    21236217.225
        38.000          38.000
  -6656201.769 3  -5186649.670 2  21588943.090    21588943.090    21588946.095
        35.000          35.000
 -12959322.487 3 -10098177.651 2  22339330.981    22339330.981    22339334.358
        36.000          36.000
 -15383284.109 3 -11986970.744 2  20566255.352    20566255.352    20566258.443
        41.000          41.000
  -6648172.522 2  -5180393.420 2  23794458.654    23794458.654    23794463.233
        23.000          23.000
   -468605.943 2   -365027.912 1  24445128.258    24445128.258    24445131.721
        20.000          19.000
 -22891251.405 3 -17804300.429 2  19800857.274    19800857.274    19800860.826
        50.000          49.000
   -306097.123 3   -238077.871 2  23328871.249    23328871.249    23328880.072
        38.000          34.000
 -13970534.669 3 -10865966.937 2  21821427.509    21821427.509    21821430.660
        44.000          43.000
 15  3 18  1 16 30.0000000  0 10G21G24G13G05G15G18G28R07R23R08
  -4632228.662 2  -3609529.452 2  22586573.236    22586573.236    22586576.927
        28.000          28.000
 -14440339.751 3 -11252207.573 2  21222523.833    21222523.833    21222528.669
        38.000          38.000
  -6600380.853 3  -5143152.857 2  21599566.229    21599566.229    21599569.005
        35.000          36.000
 -12882760.370 3 -10038518.897 2  22353900.438    22353900.438    22353903.472
        36.000          36.000
 -15382669.012 3 -11986491.459 2  20566372.422    20566372.422    20566375.399
        41.000          41.000
  -6738995.366 2  -5251164.459 2  23777173.557    23777173.557    23777178.479
        23.000          22.000
   -449996.707 2   -350527.217 2  24448667.683    24448667.683    24448671.661
        19.000          20.000
 -22906507.366 3 -17816166.192 2  19798006.913    19798006.913    19798011.382
        50.000          50.000
   -251906.404 3   -195929.555 2  23339002.321    23339002.321    23339010.399
        39.000          32.000
 -14056517.143 3 -10932842.183 2  21805374.363    21805374.363    21805374.878
        44.000          43.000
 15  3 18  1 17  0.0000000  0 10G21G24G13G05G15G18G28R07R23R08
  -4653682.298 2  -3626246.574 2  22582490.227    22582490.227    22582493.804
        28.000          28.000
 -14511841.732 3 -11307923.372 2  21208917.174    21208917.174    21208922.354
        38.000          38.000
  -6544414.124 3  -5099542.443 2  21610216.075    21610216.075    21610219.309
        35.000          35.000
 -12805900.303 3  -9978627.972 2  22368525.585    22368525.585    22368529.763
        36.000          36.000
 -15381814.337 3 -11985825.478 2  20566535.090    20566535.090    20566537.923
        40.000          41.000
  -6829779.424 2  -5321905.253 2  23759900.533    23759900.533    23759902.965
        23.000          23.000
   -430914.427 2   -335657.885 1  24452301.755    24452301.755    24452307.164
        19.000          19.000
 -22921411.208 3 -17827758.083 2  19795222.753    19795222.753    19795227.623
        49.000          50.000
   -197166.877 3   -153354.415 2  23349236.756    23349236.756    23349243.231
        39.000          34.000
 -14142454.071 3 -10999681.991 2  21789325.232    21789325.232    21789327.982
        44.000          44.000
 15  3 18  1 17 30.0000000  0 10G21G24G13G05G15G18G28R07R23R08
  -4674632.980 2  -3642571.802 2  22578504.117    22578504.117    22578506.264
        28.000          28.000
 -14582922.848 3 -11363311.230 2  21195390.964    21195390.964    21195396.659
        38.000          38.000
  -6488312.400 3  -5055826.819 2  21620892.091    21620892.091    21620895.639
        35.000          35.000
 -12728753.043 3  -9918513.272 2  22383206.474    22383206.474    22383210.080
        37.000          36.000
 -15380730.451 3 -11984980.896 2  20566741.511    20566741.511    20566744.116
        41.000          41.000
  -6920533.284 2  -5392622.508 2  23742627.455    23742627.455    23742631.405
        22.000          22.000
   -411369.574 2   -320428.121 2  24456018.633    24456018.633    24456024.557
        19.000          20.000
 -22935971.359 3 -17839082.643 2  19792503.757    19792503.757    19792506.851
        50.000          49.000
   -141892.644 3   -110363.364 2  23359569.390    23359569.390    23359576.667
        40.000          31.000
 -14228353.916 3 -11066492.977 2  21773281.031    21773281.031    21773286.072
        43.000          43.000
 15  3 18  1 18  0.0000000  0 10G21G24G13G05G15G18G28R07R23R08
  -4695065.718 2  -3658493.408 2  22574615.576    22574615.576    22574618.294
        28.000          28.000
 -14653566.903 3 -11418358.512 2  21181947.443    21181947.443    21181953.711
        39.000          39.000
  -6432061.469 3  -5011994.948 2  21631596.668    21631596.668    21631599.616
        35.000          35.000
 -12651304.956 3  -9858164.150 2  22397944.045    22397944.045    22397948.281
        35.000          35.000
 -15379403.108 3 -11983946.612 2  20566994.034    20566994.034    20566996.838
        41.000          40.000
  -7011240.846 2  -5463303.737 2  23725368.865    23725368.865    23725371.612
        22.000          22.000
   -391347.476 2   -304826.423 1  24459830.057    24459830.057    24459832.690
        19.000          19.000
 -22950170.610 3 -17850126.531 2  19789849.515    19789849.515    19789854.385
        49.000          49.000
    -86072.028 3    -66947.327 2  23370004.271    23370004.271    23370011.089
        39.000          34.000
 -14314200.010 3 -11133262.152 2  21757251.703    21757251.703    21757254.453
        44.000          43.000
 15  3 18  1 18 30.0000000  0 10G21G24G13G05G15G18G28R07R23R08
  -4714994.432 2  -3674022.284 2  22570822.941    22570822.941    22570825.803
        27.000          28.000
 -14723786.861 3 -11473075.341 2  21168585.011    21168585.011    21168590.707
        38.000          38.000
  -6375676.213 2  -4968058.399 2  21642325.480    21642325.480    21642328.513
        34.000          34.000
 -12573571.005 3  -9797592.281 2  22412736.285    22412736.285    22412741.065
        36.000          36.000
 -15377846.924 3 -11982734.009 2  20567290.365    20567290.365    20567293.084
        41.000          41.000
  -7101914.227 2  -5533958.314 2  23708114.671    23708114.671    23708117.447
        22.000          22.000
   -370862.218 2   -288863.845 1  24463727.083    24463727.083    24463729.716
        18.000          18.000
 -22964021.490 3 -17860899.452 2  19787263.183    19787263.183    19787267.193
        50.000          49.000
    -29722.953 3    -23120.330 2  23380536.960    23380536.960    23380544.923
        38.000          33.000
 -14400005.170 3 -11199999.466 2  21741229.243    21741229.243    21741231.306
        44.000          43.000
 15  3 18  1 19  0.0000000  0 10G21G24G13G05G15G18G28R07R23R08
  -4734405.666 2  -3689147.931 2  22567128.805    22567128.805    22567132.325
        27.000          27.000
 -14793568.773 3 -11527450.836 2  21155306.256    21155306.256    21155311.493
        38.000          38.000
  -6319145.117 2  -4924008.204 2  21653084.233    21653084.233    21653086.093
        34.000          35.000
 -12495539.738 3  -9736788.757 2  22427585.323    22427585.323    22427589.044
        35.000          35.000
 -15376049.917 3 -11981333.743 2  20567632.469    20567632.469    20567634.901
        41.000          41.000
  -7192539.752 2  -5604575.562 2  23690868.872    23690868.872    23690871.075
        23.000          23.000
   -349901.905 2   -272531.114 1  24467719.086    24467719.086    24467719.687
        19.000          19.000
 -22977509.571 3 -17871390.186 2  19784744.203    19784744.203    19784747.927
        50.000          50.000
     27163.448 3     21124.630 2  23391170.278    23391170.278    23391181.450
        38.000          33.000
 -14485754.927 3 -11266693.706 2  21725215.044    21725215.044    21725218.596
        44.000          43.000
 15  3 18  1 19 30.0000000  0 10G21G24G13G05G15G18G28R07R23R08
  -4753303.984 2  -3703873.890 2  22563534.160    22563534.160    22563535.734
        27.000          27.000
 -14862915.950 3 -11581487.579 2  21142109.695    21142109.695    21142115.533
        39.000          39.000
  -6262473.311 2  -4879848.361 2  21663867.672    21663867.672    21663870.333
        34.000          34.000
 -12417216.551 3  -9675757.741 2  22442490.305    22442490.305    22442494.140
        36.000          36.000
 -15374016.634 3 -11979749.375 2  20568019.163    20568019.163    20568021.853
        41.000          40.000
  -7283120.314 2  -5675157.782 2  23673631.551    23673631.551    23673632.725
        22.000          22.000
   -328471.157 2   -255831.796 1  24471794.343    24471794.343    24471798.178
        18.000          18.000
 -22990637.700 3 -17881600.969 2  19782289.889    19782289.889    19782294.873
        49.000          50.000
     84579.275 3     65781.390 2  23401905.492    23401905.492    23401912.654
        39.000          31.000
 -14571452.032 3 -11333346.983 2  21709210.992    21709210.992    21709215.461
        44.000          36.000
 15  3 18  1 20  0.0000000  0 10G21G24G13G05G15G18G28R07R23R08
  -4771695.147 2  -3718204.665 2  22560033.862    22560033.862    22560036.524
        27.000          27.000
 -14931833.138 3 -11635189.255 2  21128995.338    21128995.338    21129001.491
        39.000          38.000
  -6205667.965 2  -4835584.476 2  21674677.322    21674677.322    21674680.671
        34.000          34.000
 -12338608.406 3  -9614504.687 2  22457448.781    22457448.781    22457452.988
        36.000          36.000
 -15371753.801 3 -11977986.128 2  20568449.679    20568449.679    20568452.426
        41.000          41.000
  -7373660.033 2  -5745708.197 2  23656401.488    23656401.488    23656404.722
        23.000          23.000
   -306576.095 2   -238770.679 1  24475962.625    24475962.625    24475967.233
        19.000          19.000
 -23003409.808 3 -17891534.850 2  19779903.478    19779903.478    19779908.692
        49.000          50.000
    142514.682 3    110842.227 2  23412734.275    23412734.275    23412742.124
        38.000          32.000
 -14657100.973 3 -11399962.817 2  21693219.071    21693219.071    21693221.019
        44.000          43.000
 15  3 18  1 20 30.0000000  0 10G21G24G13G05G15G18G28R07R23R08
  -4789568.510 2  -3732131.981 2  22556632.033    22556632.033    22556634.695
        27.000          27.000
 -15000308.962 3 -11688547.019 2  21115964.978    21115964.978    21115970.358
        39.000          39.000
  -6148720.061 2  -4791209.493 2  21685514.653    21685514.653    21685517.572
        34.000          34.000
 -12259706.325 3  -9553022.598 2  22472463.534    22472463.534    22472466.625
        36.000          35.000
 -15369251.949 3 -11976036.637 2  20568925.807    20568925.807    20568928.468
        41.000          41.000
  -7464147.452 2  -5816217.849 2  23639182.914    23639182.914    23639185.747
        23.000          23.000
   -284207.292 2   -221340.385 1  24480217.825    24480217.825    24480221.345
        19.000          18.000
 -23015814.366 3 -17901182.843 2  19777588.384    19777588.384    19777591.593
        50.000          49.000
    200975.783 3    156311.954 2  23423662.842    23423662.842    23423671.608
        37.000          33.000
 -14742690.018 3 -11466532.043 2  21677235.478    21677235.478    21677236.681
        45.000          43.000
 15  3 18  1 21  0.0000000  0 10G21G24G13G05G15G18G28R07R23R08
  -4806931.024 2  -3745661.221 2  22553327.888    22553327.888    22553331.007
        26.000          26.000
 -15068348.925 3 -11741565.144 2  21103017.208    21103017.208    21103022.588
        39.000          39.000
  -6091637.014 2  -4746729.212 2  21696376.511    21696376.511    21696378.772
        33.000          33.000
 -12180518.152 3  -9491317.564 2  22487532.321    22487532.321    22487535.469
        35.000          35.000
 -15366518.392 3 -11973906.598 2  20569446.069    20569446.069    20569448.616
        41.000          41.000
  -7554587.916 2  -5886690.931 2  23621971.804    23621971.804    23621974.265
        22.000          22.000
   -261372.209 2   -203546.791 1  24484563.359    24484563.359    24484566.078
        18.000          18.000
 -23027855.948 3 -17910548.525 2  19775338.221    19775338.221    19775342.919
        50.000          50.000
    259952.341 3    202182.568 2  23434688.271    23434688.271    23434697.037
        37.000          33.000
 -14828224.238 3 -11533058.649 2  21661260.215    21661260.215    21661264.855
        44.000          43.000
 15  3 18  1 21 30.0000000  0 10G21G24G13G05G15G18G28R07R23R08
  -4823783.588 2  -3758793.090 2  22550121.617    22550121.617    22550124.708
        26.000          27.000
 -15135953.116 3 -11794243.714 2  21090152.400    21090152.400    21090157.809
        39.000          39.000
  -6034420.880 2  -4702145.226 2  21707264.808    21707264.808    21707266.783
        33.000          33.000
 -12101046.422 3  -9429391.605 2  22502655.498    22502655.498    22502660.020
        36.000          36.000
 -15363554.774 3 -11971597.293 2  20570010.331    20570010.331    20570012.535
        41.000          41.000
  -7644980.940 2  -5957127.018 2  23604771.828    23604771.828    23604774.088
        23.000          23.000
   -238072.151 2   -185390.862 1  24488997.193    24488997.193    24489000.799
        19.000          19.000
 -23039534.585 3 -17919631.930 2  19773156.431    19773156.431    19773160.499
        50.000          49.000
    319439.014 3    248449.940 2  23445809.098    23445809.098    23445817.692
        37.000          34.000
 -14913703.194 3 -11599542.264 2  21645299.462    21645299.462    21645301.983
        45.000          44.000
 15  3 18  1 22  0.0000000  0 10G21G24G13G05G15G18G28R07R23R08
  -4840113.030 2  -3771517.338 2  22547013.879    22547013.879    22547017.428
        27.000          27.000
 -15203107.398 3 -11846571.694 2  21077373.520    21077373.520    21077379.559
        40.000          40.000
  -5977059.430 2  -4657448.009 2  21718179.866    21718179.866    21718183.071
        33.000          33.000
 -12021279.040 3  -9367235.252 2  22517835.184    22517835.184    22517838.647
        36.000          36.000
 -15360348.511 3 -11969098.911 2  20570620.494    20570620.494    20570622.612
        41.000          41.000
  -7735311.525 2  -6027514.448 2  23587583.648    23587583.648    23587585.680
        23.000          23.000
   -214294.436 2   -166862.707 1  24493522.102    24493522.102    24493526.566
        19.000          19.000
 -23050834.961 3 -17928421.112 2  19771047.025    19771047.025    19771049.374
        50.000          49.000
    379445.609 3    295121.673 2  23457026.844    23457026.844    23457034.636
        36.000          33.000
 -14999111.719 3 -11665971.096 2  21629351.733    21629351.733    21629352.134
        45.000          43.000
 15  3 18  1 22 30.0000000  0 10G21G24G13G05G15G18G28R07R23R08
  -4855934.059 2  -3783845.415 2  22544002.667    22544002.667    22544006.845
        27.000          27.000
 -15269825.127 3 -11898559.508 2  21064677.587    21064677.587    21064683.340
        40.000          40.000
  -5919568.350 2  -4612649.768 2  21729120.755    21729120.755    21729122.930
        34.000          34.000
 -11941231.751 3  -9304860.796 2  22533067.571    22533067.571    22533071.263
        36.000          36.000
 -15356914.826 3 -11966423.308 2  20571273.836    20571273.836    20571276.183
        41.000          41.000
  -7825593.213 2  -6097863.771 2  23570401.929    23570401.929    23570405.221
        23.000          23.000
   -190054.472 2   -147974.393 2  24498134.215    24498134.215    24498140.254
        20.000          20.000
 -23061770.046 3 -17936926.182 2  19769003.761    19769003.761    19769006.626
        50.000          50.000
    439953.002 3    342182.923 2  23468336.472    23468336.472    23468346.384
        37.000          33.000
 -15084463.110 3 -11732355.489 2  21613411.119    21613411.119    21613413.984
        45.000          36.000
 15  3 18  1 23  0.0000000  0 10G21G24G13G05G15G18G28R07R23R08
  -4871241.567 2  -3795773.357 2  22541090.680    22541090.680    22541093.112
        26.000          26.000
 -15336100.514 3 -11950202.633 2  21052065.535    21052065.535    21052071.116
        40.000          39.000
  -5861943.611 2  -4567747.378 2  21740086.285    21740086.285    21740089.605
        34.000          34.000
 -11860900.750 3  -9242265.286 2  22548353.760    22548353.760    22548358.053
        36.000          36.000
 -15353249.355 3 -11963567.104 2  20571971.592    20571971.592    20571973.710
        41.000          41.000
  -7915819.736 2  -6168170.123 2  23553231.048    23553231.048    23553236.286
        24.000          24.000
   -165347.585 2   -128722.232 1  24502834.813    24502834.813    24502837.617
        18.000          18.000
 -23072333.203 3 -17945141.979 2  19767029.259    19767029.259    19767033.556
        50.000          50.000
    500962.504 3    389634.730 2  23479743.192    23479743.192    23479752.588
        37.000          33.000
 -15169750.791 3 -11798690.335 2  21597483.232    21597483.232    21597486.898
        44.000          43.000
 15  3 18  1 23 30.0000000  0 10G21G24G13G05G15G18G28R07R23R08
  -4886030.472 2  -3807297.194 2  22538275.724    22538275.724    22538278.643
        26.000          26.000
 -15401927.388 3 -12001496.276 2  21039539.446    21039539.446    21039544.626
        40.000          40.000
  -5804181.081 3  -4522737.633 2  21751078.458    21751078.458    21751081.034
        35.000          35.000
 -11780282.259 3  -9179445.736 2  22563695.493    22563695.493    22563699.127
        35.000          35.000
 -15349347.826 3 -11960526.949 2  20572714.013    20572714.013    20572716.217
        41.000          41.000
  -8005984.209 2  -6238428.121 2  23536074.370    23536074.370    23536076.287
        24.000          24.000
   -140169.979 2   -109103.330 1  24507629.040    24507629.040    24507632.503
        19.000          19.000
 -23082517.878 3 -17953063.404 2  19765128.033    19765128.033    19765131.069
        50.000          49.000
    562475.685 3    437478.263 2  23491241.054    23491241.054    23491250.565
        37.000          32.000
 -15254967.988 3 -11864970.370 2  21581572.077    21581572.077    21581573.338
        46.000          43.000
 15  3 18  1 24  0.0000000  0 10G21G24G13G05G15G18G28R07R23R08
  -4900308.080 2  -3818422.610 2  22535559.507    22535559.507    22535562.483
        27.000          27.000
 -15467311.818 3 -12052445.159 2  21027097.079    21027097.079    21027102.832
        40.000          40.000
  -5746288.799 2  -4477626.779 2  21762095.023    21762095.023    21762097.456
        34.000          34.000
 -11699384.280 3  -9116408.409 2  22579089.971    22579089.971    22579093.549
        36.000          36.000
 -15345217.765 3 -11957308.722 2  20573499.656    20573499.656    20573501.974
        41.000          41.000
  -8096092.402 2  -6308642.269 2  23518927.498    23518927.498    23518929.072
        23.000          23.000
   -114528.928 2    -89123.204 1  24512507.348    24512507.348    24512509.437
        18.000          18.000
 -23092329.615 3 -17960694.772 2  19763295.406    19763295.406    19763298.213
        50.000          49.000
    624480.769 3    485704.414 2  23502832.619    23502832.619    23502841.213
        37.000          32.000
 -15340120.225 3 -11931199.866 2  21565670.542    21565670.542    21565671.173
        45.000          43.000
 15  3 18  1 24 30.0000000  0 11G12G21G24G13G05G15G18G28R07R23R08
                                  25468138.219

  -4914073.261 2  -3829148.712 2  22532940.065    22532940.065    22532942.497
        28.000          27.000
 -15532252.071 3 -12103047.927 2  21014739.251    21014739.251    21014745.032
        40.000          40.000
  -5688266.769 2  -4432414.826 2  21773135.586    21773135.586    21773138.105
        34.000          34.000
 -11618207.572 3  -9053153.886 2  22594537.065    22594537.065    22594541.215
        35.000          36.000
 -15340858.896 3 -11953912.199 2  20574329.214    20574329.214    20574331.446
        41.000          41.000
  -8186141.567 2  -6378810.420 2  23501791.393    23501791.393    23501794.054
        24.000          24.000
    -88424.187 2    -68781.811 1  24517473.758    24517473.758    24517475.675
        18.000          18.000
 -23101765.655 3 -17968033.925 2  19761531.518    19761531.518    19761535.528
        50.000          50.000
    686974.745 3    534310.822 2  23514517.071    23514517.071    23514525.894
        38.000          32.000
 -15425204.860 3 -11997376.797 2  21549779.331    21549779.331    21549782.654
        45.000          36.000
 15  3 18  1 25  0.0000000  0 11G12G21G24G13G05G15G18G28R07R23R08
                                  25448821.746

                                  22530419.872

 -15596742.323 3 -12153300.045 2  21002467.182    21002467.182    21002472.877
        40.000          40.000
  -5630111.236 2  -4387098.843 2  21784202.979    21784202.979    21784205.097
        34.000          35.000
 -11536748.934 3  -8989679.681 2  22610038.479    22610038.479    22610041.427
        36.000          36.000
 -15336267.258 3 -11950334.301 2  20575203.052    20575203.052    20575205.342
        41.000          41.000
  -8276125.755 2  -6448927.938 2  23484667.284    23484667.284    23484672.064
        24.000          24.000
    -61852.050 2    -48076.222 1  24522528.979    24522528.979    24522534.617
        18.000          18.000
 -23110819.960 3 -17975076.176 2  19759840.513    19759840.513    19759844.523
        50.000          50.000
    749958.371 3    583298.009 2  23526289.407    23526289.407    23526299.949
        38.000          34.000
 -15510215.590 3 -12063496.226 2  21533905.767    21533905.767    21533906.454
        46.000          43.000
 15  3 18  1 25 30.0000000  0 11G12G21G24G13G05G15G18G28R07R23R08
                                  25429475.197

  -4940051.032 2  -3849366.720 2  22527997.901    22527997.901    22527996.556
        28.000          29.000
 -15660779.100 3 -12203198.812 2  20990281.182    20990281.182    20990286.820
        40.000          40.000
  -5571820.461 3  -4341677.463 2  21795295.045    21795295.045    21795297.993
        35.000          35.000
 -11455006.459 3  -8925984.300 2  22625592.902    22625592.902    22625596.880
        35.000          35.000
 -15331440.276 3 -11946573.017 2  20576121.247    20576121.247    20576123.709
        41.000          41.000
  -8366040.209 2  -6518991.107 2  23467558.259    23467558.259    23467561.407
        24.000          24.000
    -34809.847 2    -27004.344 1  24527677.780    24527677.780    24527680.899
        17.000          18.000
 -23119487.504 3 -17981817.596 2  19758222.455    19758222.455    19758225.205
        50.000          50.000
    813430.684 3    632665.345 2  23538156.251    23538156.251    23538163.642
        38.000          31.000
 -15595147.767 3 -12129554.568 2  21518045.093    21518045.093    21518046.869
        45.000          44.000
 15  3 18  1 26  0.0000000  0 11G12G21G24G13G05G15G18G28R07R23R08
                                  25410086.532

  -4952269.003 2  -3858806.138 2  22525673.351    22525673.351    22525670.518
        24.000          24.000
 -15724369.689 3 -12252749.900 2  20978180.374    20978180.374    20978185.668
        40.000          40.000
  -5513403.692 3  -4296157.922 2  21806411.627    21806411.627    21806414.718
        35.000          35.000
 -11372989.756 3  -8862075.226 2  22641201.498    22641201.498    22641205.018
        36.000          36.000
 -15326387.171 3 -11942635.532 2  20577082.980    20577082.980    20577085.298
        41.000          41.000
  -8455892.196 2  -6589005.591 2  23450460.158    23450460.158    23450463.020
        24.000          24.000
     -7306.974 2     -5573.494 1  24532908.559    24532908.559    24532912.937
        18.000          18.000
 -23127775.553 3 -17988263.858 2  19756673.042    19756673.042    19756677.052
        50.000          50.000
    877379.285 3    682403.082 2  23550110.372    23550110.372    23550118.393
        38.000          33.000
 -15680008.114 3 -12195557.048 2  21502197.697    21502197.697    21502200.046
        45.000          44.000
 15  3 18  1 26 30.0000000  0 11G12G21G24G13G05G15G18G28R07R23R08
                                  25390659.985

                                  22523445.706

 -15787509.504 3 -12301949.732 2  20966165.293    20966165.293    20966170.702
        40.000          40.000
  -5454858.115 2  -4250538.017 2  21817551.739    21817551.739    21817555.402
        34.000          35.000
 -11290696.638 3  -8797950.762 2  22656860.684    22656860.684    22656864.519
        36.000          36.000
 -15321105.274 3 -11938519.765 2  20578087.918    20578087.918    20578090.408
        41.000          41.000
  -8545676.834 2  -6658967.595 2  23433375.207    23433375.207    23433376.896
        24.000          24.000
     20659.457 2     16218.534 1  24538232.461    24538232.461    24538235.753
        18.000          18.000
 -23135678.844 3 -17994410.877 2  19755195.562    19755195.562    19755199.917
        50.000          50.000
    941803.278 3    732510.624 2  23562154.628    23562154.628    23562162.763
        39.000          32.000
 -15764791.293 3 -12261499.498 2  21486363.235    21486363.235    21486367.074
        45.000          44.000
 15  3 18  1 27  0.0000000  0 11G12G21G24G13G05G15G18G28R07R23R08
                                  25371200.603

  -4975156.985 2  -3876358.101 2  22521315.837    22521315.837    22521319.071
        22.000          23.000
 -15850192.911 3 -12350793.925 2  20954236.905    20954236.905    20954242.915
        40.000          40.000
  -5396180.039 2  -4204814.849 2  21828718.599    21828718.599    21828720.660
        34.000          34.000
 -11208123.560 3  -8733608.176 2  22672573.756    22672573.756    22672577.820
        36.000          36.000
 -15315589.763 3 -11934221.964 2  20579137.291    20579137.291    20579140.009
        41.000          41.000
  -8635387.337 2  -6728871.872 2  23416302.605    23416302.605    23416305.667
        24.000          24.000
     49093.359 2     38374.912 1  24543642.310    24543642.310    24543650.695
        19.000          19.000
 -23143190.864 3 -18000253.552 2  19753794.010    19753794.010    19753796.817
        50.000          50.000
   1006703.608 3    782988.630 2  23574285.281    23574285.281    23574294.390
        39.000          33.000
 -15849490.915 3 -12327376.969 2  21470546.339    21470546.339    21470550.350
        45.000          44.000
 15  3 18  1 27 30.0000000  0 11G12G21G24G13G05G15G18G28R07R23R08
                                  25351701.683

  -4985826.797 2                  22519286.115    22519286.115
        22.000
 -15912422.898 3 -12399284.808 2  20942395.284    20942395.284    20942400.721
        40.000          40.000
  -5337374.441 2  -4158992.310 2  21839908.191    21839908.191    21839910.796
        33.000          34.000
 -11125275.823 3  -8669051.552 2  22688339.476    22688339.476    22688343.053
        35.000          35.000
 -15309845.497 3 -11929745.914 2  20580230.541    20580230.541    20580233.031
        40.000          41.000
  -8725026.192 2  -6798720.285 2  23399245.227    23399245.227    23399247.345
        25.000          25.000
     77989.941 2     60891.737 1  24549142.019    24549142.019    24549145.024
        19.000          18.000
 -23150314.077 3 -18005793.830 2  19752463.307    19752463.307    19752466.458
        50.000          50.000
   1072072.092 3    833830.715 2  23586506.959    23586506.959    23586515.953
        39.000          32.000
 -15934108.926 3 -12393190.938 2  21454746.484    21454746.484    21454746.999
        45.000          44.000
 15  3 18  1 28  0.0000000  0 11G12G21G24G13G05G15G18G28R07R23R08
    546630.135 1    425926.097 1  25332170.119    25332170.119    25332182.568
        12.000          12.000
  -4995986.996 2  -3892276.935 2  22517352.208    22517352.208    22517354.155
        23.000          23.000
 -15974203.932 3 -12447425.856 2  20930638.360    20930638.360    20930643.969
        40.000          40.000
  -5278447.233 2  -4113075.018 2  21851121.986    21851121.986    21851124.820
        33.000          34.000
 -11042159.716 3  -8604285.798 2  22704156.035    22704156.035    22704159.383
        36.000          35.000
 -15303878.362 3 -11925096.191 2  20581366.115    20581366.115    20581368.576
        41.000          41.000
  -8814597.076 2  -6868515.736 2  23382201.505    23382201.505    23382203.308
        25.000          25.000
    107343.450 2     83764.638 1  24554727.185    24554727.185    24554730.562
        18.000          18.000
 -23157052.038 3 -18011034.466 2  19751202.732    19751202.732    19751207.430
        50.000          50.000
   1137899.319 3    885029.662 2  23598811.487    23598811.487    23598821.113
        39.000          32.000
 -16018648.984 3 -12458944.295 2  21438958.903    21438958.903    21438960.909
        45.000          44.000
 15  3 18  1 28 30.0000000  0 11G12G21G24G13G05G15G18G28R07R23R08
    443814.995 2    345810.705 1  25312605.274    25312605.274    25312615.576
        13.000          13.000
  -5005624.254 2  -3899630.581 2  22515518.772    22515518.772    22515521.405
        22.000          22.000
 -16035521.777 3 -12495205.981 2  20918970.020    20918970.020    20918975.343
        40.000          40.000
  -5219385.626 2  -4067053.016 2  21862360.952    21862360.952    21862363.442
        33.000          33.000
 -10958762.950 3  -8539301.354 2  22720025.223    22720025.223    22720029.688
        35.000          35.000
 -15297675.172 3 -11920262.532 2  20582546.381    20582546.381    20582549.129
        41.000          41.000
  -8904085.135 2  -6938246.670 2  23365171.003    23365171.003    23365175.925
        25.000          25.000
    137166.447 2    107003.333 1  24560403.920    24560403.920    24560407.411
        18.000          18.000
 -23163389.196 3 -18015963.375 2  19750020.455    19750020.455    19750023.090
        50.000          49.000
   1204195.111 3    936593.040 2  23611205.689    23611205.689    23611213.251
        39.000          32.000
 -16103095.427 3 -12524624.843 2  21423187.523    21423187.523    21423191.533
        45.000          44.000
 15  3 18  1 29  0.0000000  0 11G12G21G24G13G05G15G18G28R07R23R08
    340819.234 2    265554.538 1  25293005.130    25293005.130    25293014.774
        13.000          13.000
  -5014748.211 2  -3906584.251 2  22513782.502    22513782.502    22513784.963
        23.000          23.000
 -16096383.938 3 -12542631.016 2  20907388.786    20907388.786    20907393.766
        40.000          40.000
  -5160199.628 2  -4020934.061 2  21873623.886    21873623.886    21873626.662
        33.000          33.000
 -10875095.991 3  -8474106.384 2  22735946.907    22735946.907    22735951.257
        35.000          35.000
 -15291245.538 3 -11915252.417 2  20583769.887    20583769.887    20583772.520
        41.000          41.000
  -8993497.206 2  -7007918.386 2  23348157.006    23348157.006    23348159.439
        25.000          26.000
    167449.429 2    130600.501 1  24566164.936    24566164.936    24566169.086
        17.000          17.000
 -23169333.004 3 -18020586.338 2  19748910.184    19748910.184    19748912.877
        50.000          49.000
   1270945.933 3    988510.329 2  23623682.646    23623682.646    23623692.672
        38.000          31.000
 -16187455.692 3 -12590238.362 2  21407432.183    21407432.183    21407438.084
        44.000          44.000
 15  3 18  1 29 30.0000000  0 11G12G21G24G13G05G15G18G28R07R23R08
    237647.656 1    185161.376 1  25273372.998    25273372.998    25273379.094
        12.000          12.000
  -5023355.912 2  -3913135.639 2  22512144.170    22512144.170    22512147.089
        22.000          22.000
 -16156787.404 3 -12589698.635 2  20895893.889    20895893.889    20895899.241
        40.000          40.000
  -5100887.062 2  -3974716.490 2  21884911.258    21884911.258    21884913.004
        33.000          33.000
 -10791157.607 3  -8408699.886 2  22751920.369    22751920.369    22751924.462
        35.000          35.000
 -15284587.106 3 -11910064.029 2  20585037.114    20585037.114    20585039.432
        41.000          41.000
  -9082829.112 2  -7077527.633 2  23331156.461    23331156.461    23331160.325
        24.000          24.000
    198194.136 2    154557.398 1  24572016.174    24572016.174    24572018.978
        18.000          18.000
 -23174879.579 3 -18024900.335 2  19747872.783    19747872.783    19747877.252
        49.000          50.000
   1338150.723 3   1040780.695 2  23636245.726    23636245.726    23636255.694
        38.000          32.000
 -16271724.855 3 -12655781.028 2  21391697.763    21391697.763    21391700.398
        45.000          44.000
 15  3 18  1 30  0.0000000  0 11G12G21G24G13G05G15G18G28R07R23R08
    134299.513 2    104630.589 1  25253707.263    25253707.263    25253713.816
        13.000          12.000
  -5031450.803 2  -3919287.448 2  22510604.074    22510604.074    22510605.534
        22.000          23.000
 -16216733.888 3 -12636410.156 2  20884486.329    20884486.329    20884491.594
        40.000          40.000
  -5041452.002 2  -3928403.463 2  21896220.730    21896220.730    21896223.019
        33.000          33.000
 -10706952.248 3  -8343085.387 2  22767943.594    22767943.594    22767947.858
        35.000          35.000
 -15277703.605 3 -11904700.255 2  20586346.998    20586346.998    20586349.374
        41.000          41.000
  -9172082.459 2  -7147075.669 2  23314172.666    23314172.666    23314176.815
        26.000          26.000
    229396.701 2    178871.104 1  24577951.469    24577951.469    24577955.418
        17.000          17.000
 -23180030.260 3 -18028906.431 2  19746911.096    19746911.096    19746915.336
        50.000          50.000
   1405801.744 3   1093398.122 2  23648893.184    23648893.184    23648903.726
        38.000          31.000
 -16355904.612 3 -12721254.135 2  21375979.435    21375979.435    21375979.894
        45.000          44.000
 15  3 18  1 30 30.0000000  0 11G12G21G24G13G05G15G18G28R07R23R08
     30779.215 2     23965.636 1  25234005.317    25234005.317    25234014.790
        13.000          13.000
  -5039031.339 2  -3925038.417 2  22509161.179    22509161.179    22509163.755
        23.000          23.000
 -16276221.149 3 -12682763.845 2  20873166.540    20873166.540    20873171.863
        40.000          40.000
  -4981893.154 2  -3881993.991 2  21907553.638    21907553.638    21907557.043
        33.000          33.000
 -10622478.737 3  -8277261.913 2  22784018.290    22784018.290    22784022.468
        35.000          35.000
 -15270593.627 3 -11899160.013 2  20587699.792    20587699.792    20587702.368
        41.000          41.000
  -9261253.202 2  -7216559.339 2  23297204.735    23297204.735    23297207.081
        26.000          26.000
    261058.354 2    203542.558 1  24583978.751    24583978.751    24583982.758
        18.000          18.000
 -23184780.876 3 -18032601.361 2  19746023.830    19746023.830    19746027.096
        50.000          38.000
   1473897.302 3   1146361.303 2  23661622.395    23661622.395    23661630.817
        38.000          30.000
 -16439990.626 3 -12786654.341 2  21360275.463    21360275.463    21360277.239
        45.000          44.000
 15  3 18  1 31  0.0000000  0 11G12G21G24G13G05G15G18G28R07R23R08
    -72910.511 2    -56831.333 1  25214275.395    25214275.395    25214282.121
        13.000          13.000
  -5046097.061 2  -3930388.281 2  22507816.146    22507816.146    22507818.379
        23.000          23.000
 -16335247.743 3 -12728758.570 2  20861934.160    20861934.160    20861939.512
        40.000          40.000
  -4922211.238 2  -3835488.620 2  21918911.195    21918911.195    21918914.486
        32.000          33.000
 -10537737.993 3  -8211230.219 2  22800144.034    22800144.034    22800148.585
        35.000          35.000
 -15263257.017 3 -11893443.172 2  20589095.833    20589095.833    20589098.380
        41.000          41.000
  -9350339.584 2  -7285977.279 2  23280253.313    23280253.313    23280254.887
        26.000          26.000
    293178.610 2    228571.345 1  24590091.481    24590091.481    24590094.915
        18.000          18.000
 -23189129.877 3 -18035983.900 2  19745211.063    19745211.063    19745214.787
        50.000          50.000
   1542433.617 3   1199667.297 2  23674434.519    23674434.519    23674445.462
        37.000          31.000
 -16523980.796 3 -12851980.021 2  21344589.784    21344589.784    21344593.737
        45.000          44.000
 15  3 18  1 31 30.0000000  0 11G12G21G24G13G05G15G18G28R07R23R08
   -176763.591 2   -137755.601 1  25194511.152    25194511.152    25194520.023
        13.000          13.000
  -5052644.560 2                  22506570.438    22506570.438
        23.000
 -16393808.998 3 -12774390.696 2  20850790.030    20850790.030    20850795.410
        40.000          40.000
  -4862402.919 2  -3788884.767 2  21930292.981    21930292.981    21930295.643
        33.000          33.000
 -10452727.676 3  -8144988.491 2  22816321.714    22816321.714    22816325.091
        35.000          35.000
 -15255690.459 3 -11887547.139 2  20590535.605    20590535.605    20590538.324
        41.000          41.000
  -9439335.961 2  -7355325.078 2  23263316.827    23263316.827    23263319.546
        26.000          26.000
    325760.367 2    253959.749 1  24596289.205    24596289.205    24596295.272
        17.000          18.000
 -23193071.510 3 -18039049.623 2  19744474.514    19744474.514    19744478.811
        50.000          50.000
   1611410.653 3   1253316.053 2  23687329.993    23687329.993    23687338.071
        37.000          30.000
 -16607869.017 3 -12917226.402 2  21328923.451    21328923.451    21328928.035
        45.000          44.000
 15  3 18  1 32  0.0000000  0 11G12G21G24G13G05G15G18G28R07R23R08
   -280779.788 2   -218807.053 1  25174719.338    25174719.338    25174725.061
        13.000          13.000
  -5058676.550 2  -3939879.171 2  22505424.380    22505424.380    22505427.815
        23.000          23.000
 -16451906.168 3 -12819661.196 2  20839734.469    20839734.469    20839739.735
        40.000          40.000
  -4802471.111 2  -3742184.663 2  21941697.597    21941697.597    21941700.430
        33.000          33.000
 -10367451.269 3  -8078539.402 2  22832549.086    22832549.086    22832553.093
        35.000          35.000
 -15247896.889 3 -11881474.231 2  20592019.022    20592019.022    20592021.426
        41.000          41.000
  -9528243.061 2  -7424603.319 2  23246397.954    23246397.954    23246401.846
        26.000          26.000
    358800.723 2    279705.504 1  24602576.667    24602576.667    24602580.817
        18.000          18.000
 -23196606.403 3 -18041798.984 2  19743814.673    19743814.673    19743818.225
        50.000          50.000
   1680821.630 3   1307302.325 2  23700305.170    23700305.170    23700311.758
        37.000          29.000
 -16691655.843 3 -12982393.913 2  21313278.096    21313278.096    21313281.477
        45.000          45.000
 15  3 18  1 32 30.0000000  0 11G12G21G24G13G05G15G18G28R07R23R08
   -384956.239 2   -299983.338 1  25154892.434    25154892.434    25154904.254
        15.000          14.000
  -5064192.976 2  -3944021.766 2  22504373.285    22504373.285    22504376.462
        23.000          23.000
 -16509537.874 3 -12864569.006 2  20828767.646    20828767.646    20828772.854
        40.000          40.000
  -4742416.100 2  -3695388.567 2  21953125.960    21953125.960    21953128.164
        33.000          33.000
 -10281909.415 2  -8011883.481 2  22848826.993    22848826.993    22848830.742
        34.000          34.000
 -15239875.821 3 -11875224.039 2  20593545.159    20593545.159    20593547.763
        41.000          41.000
  -9617058.535 2  -7493810.160 2  23229497.181    23229497.181    23229500.329
        26.000          26.000
    392299.006 2    305808.075 1  24608952.672    24608952.672    24608958.568
        19.000          19.000
 -23199732.340 3 -18044230.258 2  19743231.296    19743231.296    19743234.849
        50.000          50.000
   1750663.042 3   1361623.441 2  23713361.282    23713361.282    23713370.449
        36.000          29.000
 -16775338.810 3 -13047480.636 2  21297651.738    21297651.738    21297653.113
        46.000          44.000
 15  3 18  1 33  0.0000000  0 11G12G21G24G13G05G15G18G28R07R23R08
   -489296.532 2   -381287.331 1  25135041.302    25135041.302    25135047.483
        14.000          14.000
  -5069199.715 2  -3947767.197 2  22503420.725    22503420.725    22503423.501
        22.000          22.000
 -16566709.387 3 -12909118.213 2  20817888.472    20817888.472    20817893.566
        40.000          40.000
  -4682244.587 2  -3648501.695 2  21964575.654    21964575.654    21964578.830
        33.000          34.000
 -10196109.380 2  -7945026.368 2  22865154.818    22865154.818    22865158.081
        34.000          34.000
 -15231633.714 3 -11868801.614 2  20595113.465    20595113.465    20595116.184
        41.000          41.000
  -9705786.217 2  -7562948.564 2  23212613.867    23212613.867    23212615.498
        27.000          26.000
    426248.673 2    332262.375 1  24615413.148    24615413.148    24615417.469
        19.000          19.000
 -23202453.882 3 -18046347.012 2  19742722.057    19742722.057    19742725.666
        50.000          50.000
   1820924.668 3   1416271.326 2  23726495.140    23726495.140    23726504.593
        36.000          30.000
 -16858921.347 3 -13112489.240 2  21282043.380    21282043.380    21282045.213
        46.000          44.000
 15  3 18  1 33 30.0000000  0 11G12G21G24G13G05G15G18G28R07R23R08
   -593793.880 1   -462713.717 1  25115153.525    25115153.525    25115159.249
        12.000          12.000
  -5073692.477 2  -3951112.129 2  22502565.497    22502565.497    22502569.990
        23.000          23.000
 -16623415.436 3 -12953304.730 2  20807097.593    20807097.593    20807102.887
        40.000          40.000
  -4621952.878 2  -3601521.163 2  21976049.216    21976049.216    21976052.107
        33.000          33.000
 -10110047.973 2  -7877965.583 2  22881530.987    22881530.987    22881534.392
        33.000          33.000
 -15223167.006 3 -11862204.169 2  20596724.845    20596724.845    20596727.335
        41.000          41.000
  -9794420.084 2  -7632013.910 2  23195747.196    23195747.196    23195747.768
        26.000          26.000
    460653.298 2    359071.180 1  24621960.416    24621960.416    24621964.108
        19.000          19.000
 -23204764.872 3 -18048144.448 2  19742290.619    19742290.619    19742294.114
        50.000          50.000
   1891607.190 3   1471246.601 2  23739711.014    23739711.014    23739718.577
        36.000          30.000
 -16942397.459 3 -13177415.092 2  21266452.875    21266452.875    21266456.886
        46.000          45.000
 15  3 18  1 34  0.0000000  0 11G12G21G24G13G05G15G18G28R07R23R08
   -698440.845 2   -544256.695 1  25095240.823    25095240.823    25095248.979
        16.000          16.000
  -5077667.664 2  -3954053.780 2  22501809.139    22501809.139    22501810.856
        22.000          22.000
 -16679650.580 3 -12997124.304 2  20796396.389    20796396.389    20796401.626
        40.000          40.000
  -4561537.035 2  -3554443.890 2  21987546.089    21987546.089    21987549.036
        34.000          34.000
 -10023721.914 2  -7810698.582 2  22897958.589    22897958.589    22897962.424
        34.000          34.000
 -15214471.022 3 -11855428.068 2  20598379.682    20598379.682    20598382.058
        41.000          41.000
  -9882953.519 2  -7701000.950 2  23178898.743    23178898.743    23178900.174
        26.000          27.000
    495516.746 2    386237.566 1  24628595.202    24628595.202    24628595.688
        18.000          18.000
 -23206658.399 3 -18049617.186 2  19741937.514    19741937.514    19741940.665
        50.000          49.000
   1962710.679 3   1526549.291 2  23753003.001    23753003.001    23753010.449
        36.000          28.000
 -17025760.214 3 -13242252.780 2  21250885.861    21250885.861    21250889.929
        46.000          45.000
 15  3 18  1 34 30.0000000  0 11G12G21G24G13G05G15G18G28R07R23R08
   -803248.316 2   -625924.700 1  25075294.026    25075294.026    25075307.620
        13.000          13.000
  -5081138.494 2  -3956601.886 2  22501148.353    22501148.353    22501150.071
        22.000          22.000
 -16735427.433 3 -13040586.769 2  20785782.234    20785782.234    20785787.500
        40.000          40.000
  -4501010.945 2  -3507280.729 2  21999063.885    21999063.885    21999066.260
        34.000          34.000
  -9937145.790 2  -7743236.732 2  22914432.800    22914432.800    22914436.979
        33.000          33.000
 -15205559.694 3 -11848484.168 2  20600075.287    20600075.287    20600077.719
        41.000          41.000
  -9971398.169 2  -7769918.836 2  23162069.009    23162069.009    23162070.898
        26.000          26.000
    530824.796 2    413750.335 1  24635312.199    24635312.199    24635315.089
        17.000          17.000
 -23208147.041 3 -18050775.009 2  19741659.056    19741659.056    19741662.494
        50.000          50.000
   2034217.714 3   1582165.832 2  23766370.403    23766370.403    23766376.476
        36.000          28.000
 -17109020.940 3 -13307011.104 2  21235339.952    21235339.952    21235341.957
        46.000          45.000
 15  3 18  1 35  0.0000000  0 11G12G21G24G13G05G15G18G28R07R23R08
   -908200.229 2   -707705.333 1  25055322.553    25055322.553    25055332.083
        14.000          14.000
  -5084091.977 2  -3958747.386 2  22500586.862    22500586.862    22500589.696
        22.000          22.000
 -16790731.968 3 -13083681.196 2  20775258.251    20775258.251    20775263.288
        40.000          40.000
  -4440361.854 2  -3460021.715 2  22010604.944    22010604.944    22010607.635
        33.000          34.000
  -9850307.480 2  -7675570.574 2  22930959.007    22930959.007    22930962.584
        33.000          33.000
 -15196419.782 3 -11841362.147 2  20601814.537    20601814.537    20601816.998
        41.000          41.000
 -10059738.946 2  -7838755.776 2  23145257.678    23145257.678    23145260.168
        26.000          27.000
    566589.623 2    441619.081 1  24642119.159    24642119.159    24642122.107
        16.000          17.000
 -23209215.060 3 -18051605.693 2  19741458.908    19741458.908    19741463.148
        50.000          50.000
   2106137.660 3   1638103.503 2  23779813.683    23779813.683    23779822.105
        35.000          29.000
 -17192163.935 3 -13371677.849 2  21219815.020    21219815.020    21219814.791
        46.000          44.000
 15  3 18  1 35 30.0000000  0 11G12G21G24G13G05G15G18G28R07R23R08
  -1013290.614 2   -789593.849 1  25035326.050    25035326.050    25035332.203
        16.000          17.000
  -5086524.802 2  -3960487.169 2  22500123.057    22500123.057    22500125.290
        22.000          22.000
 -16845559.312 3 -13126403.783 2  20764825.040    20764825.040    20764829.848
        40.000          40.000
  -4379586.376 2  -3412664.212 2  22022169.817    22022169.817    22022172.536
        33.000          33.000
  -9763204.270 2  -7607697.993 2  22947533.745    22947533.745    22947537.608
        33.000          33.000
 -15187047.896 3 -11834059.365 2  20603598.100    20603598.100    20603600.762
        41.000          41.000
 -10147969.894 2  -7907507.121 2  23128467.406    23128467.406    23128470.697
        26.000          26.000
    602814.377 2    469846.194 1  24649010.510    24649010.510    24649013.200
        17.000          17.000
 -23209856.689 3 -18052104.723 2  19741339.750    19741339.750    19741342.844
        50.000          50.000
   2178470.298 3   1694362.249 2  23793335.211    23793335.211    23793345.466
        35.000          30.000
 -17275183.145 3 -13436248.328 2  21204309.030    21204309.030    21204311.093
        46.000          44.000
 15  3 18  1 36  0.0000000  0 11G12G21G24G13G05G15G18G28R07R23R08
  -1118525.761 2   -871595.130 1  25015300.431    25015300.431    25015309.789
        16.000          16.000
  -5088446.413 2  -3961828.608 2  22499757.255    22499757.255    22499761.405
        22.000          22.000
 -16899917.728 3 -13168760.973 2  20754480.707    20754480.707    20754485.887
        41.000          41.000
  -4318694.607 2  -3365216.081 2  22033756.864    22033756.864    22033760.412
        33.000          33.000
  -9675846.410 2  -7539626.993 2  22964158.229    22964158.229    22964161.148
        34.000          34.000
 -15177453.494 3 -11826583.198 2  20605423.734    20605423.734    20605426.338
        41.000          41.000
 -10236098.473 2  -7976178.727 2  23111696.883    23111696.883    23111700.632
        26.000          27.000
    639489.077 2    498423.898 1  24655990.765    24655990.765    24655995.057
        16.000          16.000
 -23210079.991 3 -18052278.387 2  19741297.668    19741297.668    19741301.506
        50.000          50.000
   2251202.201 2   1750931.469 2  23806931.622    23806931.622    23806942.393
        34.000          30.000
 -17358085.749 3 -13500728.118 2  21188825.882    21188825.882    21188829.033
        45.000          44.000
 15  3 18  1 36 30.0000000  0 11G12G21G24G13G05G15G18G28R07R23R08
  -1223905.210 2   -953708.879 1  24995246.181    24995246.181    24995253.908
        14.000          14.000
  -5089858.622 2  -3962773.147 2  22499489.656    22499489.656    22499493.291
        22.000          21.000
 -16953808.284 3 -13210753.598 2  20744225.716    20744225.716    20744231.068
        41.000          40.000
  -4257688.627 2  -3317678.969 2  22045366.115    22045366.115    22045369.463
        34.000          34.000
  -9588237.185 2  -7471360.115 2  22980828.775    22980828.775    22980832.867
        32.000          33.000
 -15167638.379 3 -11818935.051 2  20607291.523    20607291.523    20607294.213
        41.000          41.000
 -10324124.585 2  -8044770.462 2  23094947.266    23094947.266    23094948.268
        27.000          27.000
    676610.900 2    527349.958 1  24663054.165    24663054.165    24663058.601
        15.000          15.000
 -23209885.073 3 -18052126.773 2  19741334.144    19741334.144    19741337.982
        50.000          50.000
   2324327.598 3   1807806.772 2  23820602.826    23820602.826    23820612.852
        35.000          30.000
 -17440871.161 3 -13565116.738 2  21173367.341    21173367.341    21173370.149
        46.000          45.000
 15  3 18  1 37  0.0000000  0 11G12G21G24G13G05G15G18G28R07R23R08
  -1329418.851 2  -1035927.191 1  24975167.059    24975167.059    24975176.732
        14.000          14.000
  -5090755.266 2  -3963315.909 2  22499318.160    22499318.160    22499321.652
        21.000          21.000
 -17007223.282 3 -13252375.659 2  20734061.285    20734061.285    20734066.408
        41.000          41.000
  -4196561.792 2  -3270047.690 2  22056998.034    22056998.034    22057001.296
        33.000          33.000
  -9500370.993 2  -7402893.031 2  22997549.419    22997549.419    22997553.254
        33.000          33.000
 -15157596.112 3 -11811109.895 2  20609202.383    20609202.383    20609205.101
        41.000          41.000
 -10412038.979 2  -8113275.167 2  23078217.239    23078217.239    23078219.528
        26.000          26.000
    714186.555 2    556629.708 1  24670204.827    24670204.827    24670211.609
        15.000          16.000
 -23209262.597 3 -18051642.618 2  19741450.490    19741450.490    19741454.386
        49.000          50.000
   2397849.126 3   1864990.116 2  23834347.453    23834347.453    23834355.932
        35.000          29.000
 -17523529.984 3 -13629406.915 2  21157932.285    21157932.285    21157934.176
        46.000          45.000
 15  3 18  1 37 30.0000000  0 12G12G21G24G13G05G15G18G28R24R07R23R08
  -1435072.334 2  -1118254.424 1  24955062.671    24955062.671    24955070.083
        16.000          16.000
  -5091144.523 2  -3963463.320 2  22499244.561    22499244.561    22499246.680
        20.000          20.000
 -17060169.757 3 -13293632.637 2  20723986.049    20723986.049    20723991.172
        41.000          41.000
  -4135322.968 2  -3222329.129 2  22068651.179    22068651.179    22068654.613
        33.000          33.000
  -9412256.749 2  -7334232.624 2  23014317.179    23014317.179    23014321.300
        33.000          33.000
 -15147335.107 3 -11803114.292 2  20611154.936    20611154.936    20611157.855
        41.000          41.000
 -10499847.917 2  -8181697.677 2  23061507.994    23061507.994    23061509.825
        26.000          26.000
    752206.317 2    586255.544 1  24677439.801    24677439.801    24677442.806
        15.000          15.000
   1136040.733 2    883588.598 2  24159511.116    24159511.116    24159516.730
        33.000          28.000
 -23208219.379 3 -18050831.214 2  19741645.908    19741645.908    19741649.116
        50.000          50.000
   2471754.769 3   1922472.275 2  23848161.400    23848161.400    23848170.624
        35.000          29.000
 -17606068.273 3 -13693603.335 2  21142519.453    21142519.453    21142521.057
        46.000          45.000
 15  3 18  1 38  0.0000000  0 12G12G21G24G13G05G15G18G28R24R07R23R08
  -1540853.925 2  -1200681.483 1  24934933.282    24934933.282    24934945.015
        14.000          14.000
  -5091018.039 2  -3963209.352 2  22499268.644    22499268.644    22499271.335
        21.000          21.000
 -17112638.084 3 -13334517.028 2  20714001.614    20714001.614    20714006.937
        41.000          41.000
  -4073963.721 2  -3174516.726 2  22080328.235    22080328.235    22080330.352
        32.000          32.000
  -9323886.641 2  -7265372.868 2  23031133.534    23031133.534    23031138.342
        34.000          34.000
 -15136846.378 3 -11794941.247 2  20613151.009    20613151.009    20613153.728
        41.000          41.000
 -10587540.290 2  -8250029.380 2  23044820.373    23044820.373    23044822.376
        26.000          27.000
    790678.870 2    616234.105 1  24684763.015    24684763.015    24684763.645
        15.000          15.000
   1140969.605 2    887422.177 2  24160433.788    24160433.788    24160438.429
        33.000          27.000
 -23206744.373 3 -18049683.988 2  19741920.515    19741920.515    19741924.239
        50.000          50.000
   2546049.569 2   1980257.087 2  23862050.964    23862050.964    23862060.532
        34.000          30.000
 -17688474.462 3 -13757697.014 2  21127130.394    21127130.394    21127132.284
        46.000          45.000
 15  3 18  1 38 30.0000000  0 12G12G21G24G13G05G15G18G28R24R07R23R08
  -1646768.733 2  -1283212.425 1  24914779.174    24914779.174    24914785.956
        16.000          16.000
  -5090383.901 2                  22499389.606    22499389.606
        21.000
 -17164635.044 3 -13375034.121 2  20704106.636    20704106.636    20704112.016
        41.000          41.000
  -4012492.383 2  -3126617.008 2  22092025.676    22092025.676    22092027.908
        33.000          33.000
  -9235269.968 2  -7196320.977 2  23047995.967    23047995.967    23048000.402
        33.000          33.000
 -15126138.024 3 -11786597.070 2  20615188.642    20615188.642    20615191.389
        41.000          41.000
 -10675122.067 2  -8318274.892 2  23028154.312    23028154.312    23028157.174
        27.000          27.000
    829595.038 2    646558.422 1  24692166.860    24692166.860    24692170.581
        16.000          16.000
   1146575.690 2    891782.440 2  24161484.616    24161484.616    24161485.074
        33.000          27.000
 -23204843.906 3 -18048205.846 2  19742275.789    19742275.789    19742279.742
        49.000          50.000
   2620721.408 3   2038335.190 2  23876010.263    23876010.263    23876019.086
        35.000          30.000
 -17770754.096 3 -13821692.267 2  21111764.202    21111764.202    21111765.978
        46.000          44.000
 15  3 18  1 39  0.0000000  0 12G12G21G24G13G05G15G18G28R24R07R23R08
  -1752807.579 2  -1365839.995 1  24894601.992    24894601.992    24894607.573
        15.000          16.000
  -5089236.068 2  -3961508.994 2  22499607.643    22499607.643    22499610.390
        22.000          22.000
 -17216153.900 3 -13415178.671 2  20694303.100    20694303.100    20694308.251
        41.000          41.000
  -3950902.621 2  -3078625.007 2  22103745.462    22103745.462    22103748.639
        32.000          32.000
  -9146401.192 2  -7127072.646 2  23064907.626    23064907.626    23064912.233
        33.000          33.000
 -15115203.871 3 -11778076.943 2  20617269.418    20617269.418    20617272.166
        41.000          41.000
 -10762584.548 2  -8386427.458 2  23011510.261    23011510.261    23011512.436
        26.000          26.000
    868960.677 2    677233.006 1  24699657.727    24699657.727    24699661.962
        17.000          16.000
   1152864.641 2    896673.852 2  24162657.794    24162657.794    24162660.200
        32.000          27.000
 -23202509.483 3 -18046390.176 2  19742713.233    19742713.233    19742715.754
        50.000          50.000
   2695772.658 2   2096708.326 2  23890039.076    23890039.076    23890050.363
        34.000          30.000
 -17852898.230 3 -13885582.124 2  21096423.373    21096423.373    21096426.180
        46.000          44.000
 15  3 18  1 39 30.0000000  0 12G12G21G24G13G05G15G18G28R24R07R23R08
  -1858973.854 2  -1448566.805 1  24874396.105    24874396.105    24874402.744
        17.000          17.000
  -5087580.765 2  -3960063.231 2  22499923.183    22499923.183    22499925.616
        22.000          22.000
 -17267199.226 3 -13454954.224 2  20684589.423    20684589.423    20684594.718
        40.000          41.000
  -3889201.049 2  -3030545.876 2  22115487.876    22115487.876    22115490.423
        32.000          33.000
  -9057287.394 2  -7057633.386 2  23081864.803    23081864.803    23081870.040
        33.000          33.000
 -15104049.905 3 -11769385.536 2  20619392.122    20619392.122    20619394.526
        40.000          40.000
 -10849931.781 2  -8454490.205 2  22994888.603    22994888.603    22994890.549
        26.000          27.000
    908768.898 2    708252.370 1  24707230.800    24707230.800    24707237.268
        16.000          16.000
   1159829.511 2    902090.992 2  24163962.425    24163962.425    24163966.836
        31.000          27.000
 -23199745.482 3 -18044240.399 2  19743227.944    19743227.944    19743231.840
        50.000          50.000
   2771193.329 2   2155368.761 2  23904139.822    23904139.822    23904149.791
        34.000          30.000
 -17934910.449 3 -13949369.395 2  21081108.304    21081108.304    21081111.398
        46.000          44.000
 15  3 18  1 40  0.0000000  0 12G12G21G24G13G05G15G18G28R24R07R23R08
  -1965260.409 2  -1531387.380 1  24854170.824    24854170.824    24854179.724
        17.000          18.000
  -5085414.539 2  -3958219.368 2  22500336.452    22500336.452    22500338.828
        21.000          21.000
 -17317766.746 3 -13494357.484 2  20674966.818    20674966.818    20674972.198
        41.000          41.000
  -3827384.071 2  -2982376.861 2  22127250.219    22127250.219    22127254.197
        32.000          32.000
  -8967925.968 2  -6988001.177 2  23098870.531    23098870.531    23098875.339
        33.000          33.000
 -15092672.226 3 -11760519.807 2  20621557.071    20621557.071    20621559.561
        41.000          41.000
 -10937157.904 2  -8522458.600 2  22978290.317    22978290.317    22978292.006
        27.000          27.000
    949022.649 2    739618.919 1  24714893.476    24714893.476    24714898.542
        17.000          17.000
   1167473.516 2    908036.322 2  24165391.083    24165391.083    24165394.406
        32.000          27.000
 -23196546.172 3 -18041752.062 2  19743825.187    19743825.187    19743829.599
        50.000          49.000
   2846983.209 3   2214316.447 2  23918309.088    23918309.088    23918316.020
        35.000          29.000
 -18016784.279 3 -14013049.011 2  21065820.401    21065820.401    21065822.119
        46.000          44.000
 15  3 18  1 40 30.0000000  0 12G12G21G24G13G05G15G18G28R24R07R23R08
  -2071667.806 2  -1614302.054 1  24833922.022    24833922.022    24833928.661
        16.000          16.000
  -5082741.403 2  -3955980.489 2  22500843.385    22500843.385    22500846.333
        22.000          22.000
 -17367858.946 3 -13533390.344 2  20665434.490    20665434.490    20665440.157
        41.000          41.000
  -3765455.497 2  -2934120.836 2  22139035.384    22139035.384    22139037.988
        32.000          32.000
  -8878321.508 2  -6918179.581 2  23115922.053    23115922.053    23115926.546
        33.000          33.000
 -15081074.648 3 -11751482.723 2  20623763.958    20623763.958    20623766.591
        40.000          41.000
 -11024264.095 2  -8590333.535 2  22961713.718    22961713.718    22961716.180
        27.000          27.000
    989717.617 2    771329.348 1  24722635.799    24722635.799    24722639.176
        17.000          17.000
   1175792.072 2    914506.249 2  24166947.749    24166947.749    24166952.676
        33.000          30.000
 -23192913.465 3 -18038926.633 2  19744504.664    19744504.664    19744508.330
        49.000          49.000
   2923134.732 2   2273545.375 2  23932543.994    23932543.994    23932553.676
        33.000          29.000
 -18098520.918 3 -14076621.927 2  21050558.748    21050558.748    21050559.378
        46.000          45.000
 15  3 18  1 41  0.0000000  0 12G12G21G24G13G05G15G18G28R24R07R23R08
  -2178184.920 2  -1697302.293 1  24813652.986    24813652.986    24813658.109
        17.000          17.000
  -5079552.912 2  -3953340.047 2  22501451.414    22501451.414    22501453.789
        22.000          22.000
 -17417466.434 3 -13572045.506 2  20655994.305    20655994.305    20656000.029
        41.000          41.000
  -3703406.987 2  -2885771.374 2  22150842.179    22150842.179    22150844.497
        31.000          31.000
  -8788466.425 2  -6848162.701 2  23133020.732    23133020.732    23133025.425
        33.000          33.000
 -15069248.719 3 -11742267.704 2  20626014.506    20626014.506    20626017.053
        41.000          40.000
 -11111239.216 2  -8658106.348 2  22945163.511    22945163.511    22945166.974
        27.000          27.000
   1030861.721 2    803389.643 1  24730466.461    24730466.461    24730469.581
        18.000          18.000
   1184792.914 2    921506.878 2  24168629.052    24168629.052    24168634.094
        32.000          28.000
 -23188836.557 3 -18035755.714 2  19745266.387    19745266.387    19745269.652
        50.000          50.000
   2999652.885 2   2333059.428 2  23946847.070    23946847.070    23946856.810
        33.000          30.000
 -18180109.045 3 -14140079.323 2  21035321.905    21035321.905    21035323.108
        47.000          45.000
 15  3 18  1 41 30.0000000  0 12G12G21G24G13G05G15G18G28R24R07R23R08
  -2284823.448 2  -1780397.112 1  24793357.053    24793357.053    24793365.553
        18.000          17.000
  -5075864.383 2  -3950309.448 2  22502152.223    22502152.223    22502154.742
        23.000          23.000
 -17466603.079 3 -13610333.779 2  20646644.225    20646644.225    20646649.434
        41.000          41.000
  -3641253.573 2  -2837340.157 2  22162669.718    22162669.718    22162673.381
        32.000          32.000
  -8698376.563 2  -6777962.888 2  23150163.897    23150163.897    23150168.476
        33.000          33.000
 -15057209.168 3 -11732886.226 2  20628305.317    20628305.317    20628307.864
        40.000          41.000
 -11198096.180 2  -8725787.067 2  22928634.388    22928634.388    22928638.509
        27.000          27.000
   1072439.400 2    835787.844 1  24738379.462    24738379.462    24738382.095
        17.000          17.000
   1194460.359 2    929025.984 2  24170437.891    24170437.891    24170440.182
        33.000          29.000
 -23184328.431 3 -18032249.417 2  19746107.616    19746107.616    19746111.626
        50.000          50.000
   3076518.744 2   2392843.926 2  23961217.982    23961217.982    23961225.946
        32.000          30.000
 -18261560.945 3 -14203430.788 2  21020108.851    21020108.851    21020112.518
        47.000          45.000
 15  3 18  1 42  0.0000000  0 12G12G21G24G13G05G15G18G28R24R07R23R08
  -2391574.828 2  -1863579.894 1  24773044.587    24773044.587    24773054.174
        18.000          18.000
  -5071670.129 2  -3946885.812 2  22502951.155    22502951.155    22502953.045
        22.000          22.000
 -17515262.277 3 -13648250.027 2  20637384.626    20637384.626    20637389.720
        41.000          41.000
  -3578989.829 2  -2788822.983 2  22174519.242    22174519.242    22174521.245
        32.000          32.000
  -8608047.393 2  -6707576.579 2  23167353.442    23167353.442    23167358.050
        33.000          33.000
 -15044950.088 3 -11723333.696 2  20630638.262    20630638.262    20630640.638
        41.000          41.000
 -11284827.062 2  -8793369.556 2  22912131.071    22912131.071    22912134.734
        27.000          27.000
   1114455.443 2    868527.609 1  24746375.426    24746375.426    24746377.658
        16.000          16.000
   1204799.230 2    937067.275 2  24172372.153    24172372.153    24172375.132
        32.000          29.000
 -23179381.810 3 -18028402.051 2  19747032.729    19747032.729    19747036.052
        50.000          49.000
   3153733.429 3   2452899.795 2  23975652.118    23975652.118    23975661.171
        35.000          28.000
 -18342868.120 3 -14266669.680 2  21004925.012    21004925.012    21004928.507
        46.000          45.000
 15  3 18  1 42 30.0000000  0 12G12G21G24G13G05G15G18G28R24R07R23R08
  -2498429.986 2  -1946843.487 1  24752708.397    24752708.397    24752717.898
        18.000          17.000
  -5066964.639 2  -3943062.780 2  22503846.165    22503846.165    22503850.515
        22.000          23.000
 -17563437.086 3 -13685788.816 2  20628217.078    20628217.078    20628222.630
        41.000          41.000
  -3516609.677 2  -2740215.101 2  22186389.076    22186389.076    22186391.680
        32.000          32.000
  -8517473.794 2  -6636999.819 2  23184588.534    23184588.534    23184592.369
        32.000          32.000
 -15032465.477 3 -11713605.425 2  20633013.747    20633013.747    20633016.523
        40.000          40.000
 -11371423.283 2  -8860847.102 2  22895651.822    22895651.822    22895653.825
        27.000          27.000
   1156915.117 2    901613.110 1  24754451.323    24754451.323    24754461.654
        18.000          18.000
   1215814.744 2    945634.858 2  24174430.064    24174430.064    24174434.017
        32.000          29.000
 -23173988.282 3 -18024207.097 2  19748040.081    19748040.081    19748043.919
        50.000          50.000
   3231299.869 2   2513229.223 2  23990154.357    23990154.357    23990160.144
        34.000          29.000
 -18424021.673 3 -14329789.086 2  20989770.532    20989770.532    20989773.913
        47.000          45.000
 15  3 18  1 43  0.0000000  0 12G12G21G24G13G05G15G18G28R24R07R23R08
  -2605389.611 2  -2030188.472 1  24732361.256    24732361.256    24732366.293
        18.000          18.000
  -5061752.011 2  -3938845.079 2  22504837.914    22504837.914    22504840.633
        22.000          23.000
 -17611130.397 3 -13722952.413 2  20619141.415    20619141.415    20619146.738
        41.000          41.000
  -3454117.416 2  -2691519.850 2  22198280.001    22198280.001    22198283.979
        31.000          32.000
  -8426660.754 2  -6566236.483 2  23201869.907    23201869.907    23201874.343
        32.000          32.000
 -15019758.880 3 -11703704.184 2  20635431.751    20635431.751    20635434.412
        40.000          40.000
 -11457886.259 2  -8928220.844 2  22879198.471    22879198.471    22879200.159
        27.000          27.000
   1199813.917 2    935040.779 1  24762615.798    24762615.798    24762621.206
        17.000          16.000
   1227502.161 2    954725.089 2  24176618.034    24176618.034    24176620.383
        32.000          29.000
 -23168149.779 3 -18019666.057 2  19749128.928    19749128.928    19749134.371
        49.000          50.000
   3309210.018 2   2573826.014 2  24004715.340    24004715.340    24004724.793
        33.000          28.000
 -18505022.988 3 -14392790.073 2  20974644.953    20974644.953    20974646.843
        47.000          45.000
 15  3 18  1 43 30.0000000  0 12G12G21G24G13G05G15G18G28R24R07R23R08
  -2712455.097 2  -2113616.000 1  24711983.471    24711983.471    24711993.029
        18.000          18.000
  -5056037.279 2  -3934236.127 2  22505926.294    22505926.294    22505927.783
        22.000          22.000
 -17658345.985 3 -13759743.759 2  20610156.614    20610156.614    20610161.994
        41.000          41.000
  -3391517.357 2  -2642740.613 2  22210193.468    22210193.468    22210195.958
        31.000          31.000
  -8335613.693 2  -6495290.807 2  23219195.923    23219195.923    23219200.530
        32.000          32.000
 -15006834.908 3 -11693633.559 2  20637891.264    20637891.264    20637893.639
        40.000          40.000
 -11544218.455 2  -8995492.673 2  22862769.840    22862769.840    22862773.160
        28.000          27.000
   1243146.377 2    968806.327 1  24770862.245    24770862.245    24770868.341
        17.000          17.000
   1239856.058 2    964333.652 2  24178926.180    24178926.180    24178931.508
        32.000          28.000
 -23161869.346 3 -18014781.292 2  19750302.826    19750302.826    19750307.868
        49.000          49.000
   3387455.887 2   2634683.884 2  24019345.011    24019345.011    24019353.318
        32.000          30.000
 -18585873.730 3 -14455673.963 2  20959547.547    20959547.547    20959548.578
        47.000          37.000
 15  3 18  1 44  0.0000000  0 12G12G21G24G13G05G15G18G28R24R07R23R08
  -2819619.052 2  -2197120.224 1  24691592.142    24691592.142    24691601.729
        19.000          19.000
  -5049816.650 2  -3929232.964 2  22507109.718    22507109.718    22507112.466
        23.000          23.000
 -17705078.506 3 -13796158.697 2  20601263.954    20601263.954    20601269.220
        41.000          41.000
  -3328805.628 2  -2593874.349 2  22222126.746    22222126.746    22222129.895
        31.000          31.000
  -8244329.422 2  -6424160.280 2  23236566.261    23236566.261    23236569.982
        32.000          32.000
 -14993689.276 3 -11683390.209 2  20640392.559    20640392.559    20640395.420
        40.000          41.000
 -11630413.095 2  -9062657.304 2  22846367.393    22846367.393    22846371.228
        28.000          28.000
   1286915.861 2   1002912.414 1  24779192.542    24779192.542    24779197.722
        18.000          18.000
   1252879.630 2    974463.073 2  24181362.433    24181362.433    24181363.808
        33.000          28.000
 -23155140.536 3 -18009547.782 2  19751561.131    19751561.131    19751565.027
        49.000          50.000
   3466037.207 2   2695802.591 2  24034032.051    24034032.051    24034043.682
        32.000          31.000
 -18666567.007 3 -14518435.363 2  20944478.665    20944478.665    20944479.296
        47.000          45.000
 15  3 18  1 44 30.0000000  0 12G12G21G24G13G05G15G18G28R24R07R23R08
  -2926881.565 2  -2280701.248 1  24671179.114    24671179.114    24671187.671
        18.000          18.000
  -5043093.647 2  -3923838.855 2  22508389.139    22508389.139    22508391.372
        22.000          22.000
 -17751330.312 3 -13832199.042 2  20592462.447    20592462.447    20592467.598
        42.000          42.000
  -3265985.394 2  -2544923.520 2  22234081.501    22234081.501    22234084.763
        31.000          31.000
  -8152811.783 2  -6352847.905 2  23253981.872    23253981.872    23253985.363
        31.000          31.000
 -14980325.124 3 -11672976.599 2  20642935.839    20642935.839    20642938.558
        41.000          40.000
 -11716470.702 2  -9129715.140 2  22829990.872    22829990.872    22829994.249
        28.000          28.000
   1331118.603 2   1037356.108 1  24787601.678    24787601.678    24787609.062
        19.000          19.000
   1266568.650 2    985110.053 2  24183921.858    24183921.858    24183927.244
        33.000          29.000
 -23147964.581 3 -18003966.500 2  19752900.638    19752900.638    19752905.393
        49.000          50.000
   3544946.851 2   2757176.733 2  24048783.891    24048783.891    24048794.891
        34.000          31.000
 -18747103.033 3 -14581074.468 2  20929440.460    20929440.460    20929440.116
        47.000          45.000
 15  3 18  1 45  0.0000000  0 13G12G21G24G13G05G22G15G18G28R24R07R23
                                R08
  -3034237.756 2  -2364355.240 1  24650748.584    24650748.584    24650757.971
        19.000          19.000
  -5035866.583 2  -3918051.464 2  22509764.528    22509764.528    22509767.562
        23.000          23.000
 -17797099.344 3 -13867863.210 2  20583752.824    20583752.824    20583757.946
        42.000          42.000
  -3203055.311 2  -2495887.120 2  22246055.840    22246055.840    22246059.761
        30.000          30.000
  -8061060.173 2  -6281353.223 2  23271441.878    23271441.878    23271446.171
        31.000          31.000
                                  25813126.057

 -14966740.131 3 -11662390.899 2  20645521.107    20645521.107    20645523.798
        41.000          41.000
 -11802387.263 2  -9196663.094 2  22813642.203    22813642.203    22813646.010
        28.000          28.000
   1375755.575 2   1072138.194 2  24796098.684    24796098.684    24796104.693
        20.000          20.000
   1280923.933 2    996275.269 2  24186607.349    24186607.349    24186608.380
        32.000          27.000
 -23140337.615 3 -17998034.438 2  19754324.817    19754324.817    19754330.259
        49.000          50.000
   3624183.225 2   2818804.976 2  24063597.842    24063597.842    24063606.951
        33.000          29.000
 -18827477.123 3 -14643587.625 2  20914428.769    20914428.769    20914430.946
        47.000          46.000
 15  3 18  1 45 30.0000000  0 13G12G21G24G13G05G22G15G18G28R24R07R23
                                R08
  -3141686.545 2  -2448081.418 1  24630302.714    24630302.714    24630313.217
        18.000          19.000
  -5028138.458 2  -3911873.643 2  22511235.185    22511235.185    22511236.674
        22.000          22.000
 -17842386.211 3 -13903151.660 2  20575134.773    20575134.773    20575140.067
        42.000          42.000
  -3140017.309 2  -2446766.632 2  22258051.624    22258051.624    22258055.631
        30.000          30.000
  -7969077.853 2  -6209678.780 2  23288945.507    23288945.507    23288949.227
        31.000          31.000
                                  25794033.892

 -14952936.669 3 -11651634.961 2  20648147.845    20648147.845    20648150.564
        41.000          41.000
 -11888162.520 2  -9263500.946 2  22797319.797    22797319.797    22797322.000
        28.000          28.000
   1420823.625 2   1107256.173 1  24804673.702    24804673.702    24804678.538
        19.000          19.000
   1295942.376 2   1007956.262 2  24189415.179    24189415.179    24189420.679
        34.000          28.000
 -23132260.256 3 -17991752.049 2  19755834.641    19755834.641    19755839.167
        50.000          50.000
   3703740.078 2   2880682.480 2  24078468.411    24078468.411    24078479.755
        29.000          28.000
 -18907688.693 3 -14705974.368 2  20899448.683    20899448.683    20899452.579
        47.000          46.000
 15  3 18  1 46  0.0000000  0 13G12G21G24G13G05G22G15G18G28R24R07R23
                                R08
  -3249224.397 2  -2531876.960 1  24609836.476    24609836.476    24609847.007
        17.000          17.000
  -5019908.690 2  -3905304.926 2  22512800.865    22512800.865    22512804.614
        21.000          21.000
 -17887189.867 3 -13938063.582 2  20566608.932    20566608.932    20566613.997
        41.000          41.000
  -3076870.955 2  -2397561.683 2  22270067.530    22270067.530    22270070.621
        30.000          30.000
  -7876865.063 2  -6137824.757 2  23306492.659    23306492.659    23306496.351
        30.000          30.000
                                  25774932.278

 -14938914.200 3 -11640708.373 2  20650816.464    20650816.464    20650818.868
        40.000          41.000
 -11973793.683 2  -9330226.503 2  22781024.789    22781024.789    22781027.393
        29.000          29.000
   1466322.746 2   1142709.987 2  24813333.552    24813333.552    24813335.011
        20.000          20.000
   1311622.892 2   1020152.220 2  24192346.586    24192346.586    24192350.138
        33.000          27.000
 -23123730.096 3 -17985117.489 2  19757428.532    19757428.532    19757432.600
        50.000          50.000
   3783613.900 2   2942806.492 2  24093401.192    24093401.192    24093411.390
        33.000          29.000
 -18987734.476 3 -14768232.179 2  20884501.098    20884501.098    20884504.822
        47.000          46.000
 15  3 18  1 46 30.0000000  0 13G12G21G24G13G05G22G15G18G28R24R07R23
                                R08
  -3356840.230 2  -2615733.318 1  24589358.193    24589358.193    24589368.925
        19.000          18.000
  -5011170.065 2  -3898339.197 2  22514463.402    22514463.402    22514465.520
        20.000          20.000
 -17931501.450 3 -13972592.072 2  20558176.830    20558176.830    20558181.953
        42.000          42.000
  -3013608.474 2  -2348266.244 2  22282106.851    22282106.851    22282110.399
        31.000          31.000
  -7784415.363 2  -6065786.121 2  23324084.808    23324084.808    23324088.872
        30.000          30.000
                                  25755822.416

 -14924664.297 3 -11629604.565 2  20653528.106    20653528.106    20653530.568
        41.000          41.000
 -12059270.586 2  -9396831.873 2  22764758.910    22764758.910    22764761.857
        28.000          28.000
   1512259.643 2   1178504.982 1  24822074.122    24822074.122    24822077.155
        18.000          18.000
   1327972.886 2   1032868.888 2  24195405.233    24195405.233    24195408.728
        34.000          28.000
 -23114737.031 3 -17978122.897 2  19759107.495    19759107.495    19759112.651
        49.000          50.000
   3863808.559 2   3005180.052 2  24108392.427    24108392.427    24108401.537
        34.000          29.000
 -19067603.392 3 -14830352.424 2  20869586.943    20869586.943    20869589.980
        47.000          46.000
 15  3 18  1 47  0.0000000  0 13G12G21G24G13G05G22G15G18G28R24R07R23
                                R08
  -3464542.660 2  -2699657.101 1  24568867.022    24568867.022    24568873.319
        19.000          19.000
  -5001935.089 2  -3890987.720 2  22516221.319    22516221.319    22516223.265
        21.000          21.000
 -17975332.077 3 -14006745.790 2  20549836.310    20549836.310    20549841.404
        41.000          42.000
  -2950241.774 2  -2298889.606 2  22294165.637    22294165.637    22294169.100
        31.000          31.000
  -7691741.400 2  -5993572.733 2  23341721.238    23341721.238    23341725.101
        30.000          30.000
                                  25736707.019

 -14910198.968 3 -11618332.882 2  20656280.677    20656280.677    20656283.395
        40.000          41.000
 -12144602.706 2  -9463324.403 2  22748520.927    22748520.927    22748523.789
        28.000          28.000
   1558621.754 2   1214631.332 1  24830896.393    24830896.393    24830899.455
        17.000          17.000
   1344978.923 2   1046095.796 2  24198585.746    24198585.746    24198590.501
        33.000          27.000
 -23105291.430 3 -17970776.334 2  19760872.635    19760872.635    19760876.817
        50.000          50.000
   3944308.618 2   3067791.224 2  24123442.500    24123442.500    24123448.802
        34.000          29.000
 -19147304.822 3 -14892342.407 2  20854702.921    20854702.921    20854705.098
        47.000          46.000
 15  3 18  1 47 30.0000000  0 13G12G21G24G13G05G22G15G18G28R24R07R23
                                R08
  -3572328.713 2  -2783646.077 1  24548353.746    24548353.746    24548358.525
        18.000          18.000
  -4992204.003 2  -3883249.167 2  22518071.511    22518071.511    22518076.520
        21.000          21.000
 -18018681.049 3 -14040524.193 2  20541587.032    20541587.032    20541592.211
        42.000          42.000
  -2886770.959 2  -2249431.859 2  22306243.475    22306243.475    22306246.909
        31.000          31.000
  -7598844.127 2  -5921185.356 2  23359399.312    23359399.312    23359401.716
        30.000          30.000
                                  25717577.703

 -14895517.855 3 -11606893.062 2  20659074.466    20659074.466    20659077.099
        41.000          41.000
 -12229787.076 2  -9529701.798 2  22732310.436    22732310.436    22732313.298
        29.000          29.000
   1605407.991 2   1251088.125 1  24839799.940    24839799.940    24839801.600
        17.000          17.000
   1362639.799 2   1059832.044 2  24201886.730    24201886.730    24201892.058
        33.000          27.000
 -23095391.367 3 -17963076.285 2  19762722.510    19762722.510    19762725.547
        50.000          49.000
   4025109.776 2   3130636.727 2  24138547.126    24138547.126    24138555.204
        32.000          29.000
 -19226835.712 3 -14954199.746 2  20839851.893    20839851.893    20839853.268
        47.000          45.000
 15  3 18  1 48  0.0000000  0 13G12G21G24G13G05G22G15G18G28R24R07R23
                                R08
  -3680179.324 2  -2867685.340 1  24527830.219    24527830.219    24527836.515
        19.000          19.000
  -4981961.842 2                  22520021.645    22520021.645
        20.000
 -18061531.989 3 -14073914.515 2  20533432.845    20533432.845    20533438.140
        42.000          42.000
  -2823180.640 2  -2199880.957 2  22318343.642    22318343.642    22318346.647
        30.000          30.000
  -7505709.307 2  -5848612.863 2  23377122.336    23377122.336    23377126.486
        29.000          30.000
                                  25698450.216

 -14880605.098 3 -11595272.749 2  20661912.047    20661912.047    20661914.994
        41.000          41.000
 -12314805.815 2  -9595950.156 2  22716132.513    22716132.513    22716133.829
        29.000          29.000
   1652633.065 2   1287886.883 1  24848785.661    24848785.661    24848787.350
        17.000          17.000
   1380970.335 2   1074089.114 2  24205316.041    24205316.041    24205319.020
        34.000          27.000
 -23085019.053 3 -17955008.940 2  19764659.633    19764659.633    19764664.101
        49.000          50.000
   4106224.021 2   3193725.551 2  24153709.519    24153709.519    24153721.322
        31.000          28.000
 -19306177.400 3 -15015909.933 2  20825035.938    20825035.938    20825036.912
        48.000          45.000
 15  3 18  1 48 30.0000000  0 13G12G21G24G13G05G22G15G18G28R24R07R23
                                R08
  -3788111.474 2  -2951788.107 1  24507289.808    24507289.808    24507302.114
        18.000          18.000
  -4971229.203 2  -3866592.831 2  22522064.382    22522064.382    22522065.956
        20.000          20.000
 -18103904.401 3 -14106931.965 2  20525369.399    20525369.399    20525374.779
        42.000          42.000
  -2759490.780 2  -2150252.527 2  22330464.396    22330464.396    22330467.200
        30.000          31.000
  -7412357.926 2  -5775871.638 2  23394885.378    23394885.378    23394889.184
        29.000          29.000
                                  25679307.793

 -14865481.132 3 -11583487.849 2  20664789.759    20664789.759    20664792.707
        40.000          40.000
 -12399676.649 2  -9662083.259 2  22699981.367    22699981.367    22699984.457
        29.000          29.000
   1700276.045 2   1325011.318 1  24857853.708    24857853.708    24857856.398
        17.000          18.000
   1399948.579 2   1088849.996 2  24208865.723    24208865.723    24208867.901
        32.000          28.000
 -23074193.434 3 -17946589.030 2  19766682.800    19766682.800    19766686.008
        50.000          49.000
   4187626.840 2   3257038.863 2  24168928.039    24168928.039    24168936.747
        32.000          28.000
 -19385347.394 3 -15077486.572 2  20810251.588    20810251.588    20810251.932
        47.000          45.000
 15  3 18  1 49  0.0000000  0 13G12G21G24G13G05G22G15G18G28R24R07R23
                                R08
  -3896122.476 2  -3035952.412 1  24486737.295    24486737.295    24486744.134
        18.000          18.000
  -4960006.923 2  -3857692.316 2  22524199.643    22524199.643    22524203.422
        21.000          21.000
 -18145797.371 3 -14139575.817 2  20517397.564    20517397.564    20517402.887
        41.000          41.000
  -2695701.122 2  -2100546.339 2  22342602.902    22342602.902    22342605.420
        31.000          31.000
  -7318790.967 2  -5702962.413 2  23412691.935    23412691.935    23412695.283
        29.000          29.000
                                  25660159.711

 -14850145.508 3 -11571538.021 2  20667708.118    20667708.118    20667711.094
        41.000          41.000
 -12484397.222 2  -9728099.270 2  22683859.635    22683859.635    22683862.811
        29.000          29.000
   1748336.129 2   1362460.720 1  24866997.824    24866997.824    24867000.972
        19.000          19.000
   1419573.389 2   1104113.773 2  24212537.527    24212537.527    24212539.475
        32.000          26.000
 -23062912.388 3 -17937814.894 2  19768791.217    19768791.217    19768793.738
        50.000          49.000
   4269314.346 2   3320573.476 2  24184198.327    24184198.327    24184208.124
        32.000          29.000
 -19464342.802 3 -15138927.419 2  20795497.974    20795497.974    20795499.922
        47.000          45.000
 15  3 18  1 49 30.0000000  0 13G12G21G24G13G05G22G15G18G28R24R07R23
                                R08
  -4004203.160 2  -3120170.904 1  24466170.749    24466170.749    24466178.447
        19.000          19.000
  -4948289.593 2  -3848406.532 2  22526428.689    22526428.689    22526432.009
        21.000          21.000
 -18187204.926 3 -14171841.427 2  20509518.065    20509518.065    20509523.187
        42.000          42.000
  -2631806.533 2  -2050758.353 2  22354760.774    22354760.774    22354764.523
        30.000          30.000
  -7225003.865 2  -5629881.668 2  23430538.925    23430538.925    23430542.474
        30.000          30.000
                                  25641004.624

 -14834592.434 3 -11559418.754 2  20670667.580    20670667.580    20670670.842
        41.000          41.000
 -12568959.458 2  -9793991.911 2  22667767.945    22667767.945    22667771.980
        30.000          30.000
   1796817.777 2   1400238.642 1  24876224.383    24876224.383    24876228.275
        18.000          18.000
   1439849.108 2   1119883.737 2  24216326.688    24216326.688    24216330.985
        32.000          28.000
 -23051168.397 3 -17928680.682 2  19770983.677    19770983.677    19770986.771
        50.000          49.000
   4351288.831 2   3384331.535 2  24199523.090    24199523.090    24199531.340
        32.000          28.000
 -19543155.074 3 -15200225.844 2  20780780.173    20780780.173    20780781.662
        47.000          45.000
